{
"type": "FeatureCollection",
"name": "hexagon_centroids_distance_to_cta_bus_stations",
"crs": { "type": "name", "properties": { "name": "urn:ogc:def:crs:OGC:1.3:CRS84" } },
"features": [
{ "type": "Feature", "properties": { "fid": 1.0, "id": 6274.0, "left": 1159000.632258716, "top": 1913897.9448048582, "right": 1162049.0416800373, "bottom": 1911257.9448048582, "nearest_bus_station_name": "Milwaukee & Oakley\/Moffat", "nearest_bus_station_distance": 0.054089599451226003 }, "geometry": { "type": "Point", "coordinates": [ -87.685675478916323, 41.915814923120749 ] } },
{ "type": "Feature", "properties": { "fid": 2.0, "id": 6275.0, "left": 1159000.632258716, "top": 1911257.9448048582, "right": 1162049.0416800373, "bottom": 1908617.9448048582, "nearest_bus_station_name": "Western & Le Moyne", "nearest_bus_station_distance": 0.067718059601115002 }, "geometry": { "type": "Point", "coordinates": [ -87.685748665823354, 41.908570569838432 ] } },
{ "type": "Feature", "properties": { "fid": 3.0, "id": 6272.0, "left": 1159000.632258716, "top": 1919177.9448048582, "right": 1162049.0416800373, "bottom": 1916537.9448048582, "nearest_bus_station_name": "Western & Schubert", "nearest_bus_station_distance": 0.112082149437756 }, "geometry": { "type": "Point", "coordinates": [ -87.685529024477077, 41.930303601882478 ] } },
{ "type": "Feature", "properties": { "fid": 4.0, "id": 6273.0, "left": 1159000.632258716, "top": 1916537.9448048582, "right": 1162049.0416800373, "bottom": 1913897.9448048582, "nearest_bus_station_name": "Western & Belden", "nearest_bus_station_distance": 0.097150106882557 }, "geometry": { "type": "Point", "coordinates": [ -87.685602265138044, 41.923059267135528 ] } },
{ "type": "Feature", "properties": { "fid": 5.0, "id": 6278.0, "left": 1159000.632258716, "top": 1903337.9448048582, "right": 1162049.0416800373, "bottom": 1900697.9448048582, "nearest_bus_station_name": "Western & Fulton", "nearest_bus_station_distance": 0.028105972923058001 }, "geometry": { "type": "Point", "coordinates": [ -87.68596806543124, 41.886837454388882 ] } },
{ "type": "Feature", "properties": { "fid": 6.0, "id": 6279.0, "left": 1159000.632258716, "top": 1900697.9448048582, "right": 1162049.0416800373, "bottom": 1898057.9448048582, "nearest_bus_station_name": "Western & Adams", "nearest_bus_station_distance": 0.055581867432799997 }, "geometry": { "type": "Point", "coordinates": [ -87.68604114496749, 41.879593064039128 ] } },
{ "type": "Feature", "properties": { "fid": 7.0, "id": 6276.0, "left": 1159000.632258716, "top": 1908617.9448048582, "right": 1162049.0416800373, "bottom": 1905977.9448048582, "nearest_bus_station_name": "Western & Thomas", "nearest_bus_station_distance": 0.055278534747471998 }, "geometry": { "type": "Point", "coordinates": [ -87.685821825870576, 41.901326207288804 ] } },
{ "type": "Feature", "properties": { "fid": 8.0, "id": 6277.0, "left": 1159000.632258716, "top": 1905977.9448048582, "right": 1162049.0416800373, "bottom": 1903337.9448048582, "nearest_bus_station_name": "Western & Huron", "nearest_bus_station_distance": 0.045493522566131997 }, "geometry": { "type": "Point", "coordinates": [ -87.685894959069415, 41.894081835472193 ] } },
{ "type": "Feature", "properties": { "fid": 9.0, "id": 6282.0, "left": 1159000.632258716, "top": 1892777.9448048582, "right": 1162049.0416800373, "bottom": 1890137.9448048582, "nearest_bus_station_name": "18th Street & Western", "nearest_bus_station_distance": 0.047211230935097 }, "geometry": { "type": "Point", "coordinates": [ -87.686260222736692, 41.857859837394116 ] } },
{ "type": "Feature", "properties": { "fid": 10.0, "id": 8370.0, "left": 1197867.8523805616, "top": 1857137.9448048582, "right": 1200916.2618018829, "bottom": 1854497.9448048582, "nearest_bus_station_name": "S. Shore Drive & 78th Street", "nearest_bus_station_distance": 0.439571261772081 }, "geometry": { "type": "Point", "coordinates": [ -87.544796233189942, 41.759169929651399 ] } },
{ "type": "Feature", "properties": { "fid": 11.0, "id": 6283.0, "left": 1159000.632258716, "top": 1890137.9448048582, "right": 1162049.0416800373, "bottom": 1887497.9448048582, "nearest_bus_station_name": "Western & Cermak", "nearest_bus_station_distance": 0.088607611514060006 }, "geometry": { "type": "Point", "coordinates": [ -87.686333195084529, 41.850615409981458 ] } },
{ "type": "Feature", "properties": { "fid": 12.0, "id": 8371.0, "left": 1197867.8523805616, "top": 1854497.9448048582, "right": 1200916.2618018829, "bottom": 1851857.9448048582, "nearest_bus_station_name": "79th Street & Lake Shore Drive", "nearest_bus_station_distance": 0.00372577763242 }, "geometry": { "type": "Point", "coordinates": [ -87.544884849837729, 41.751925593544712 ] } },
{ "type": "Feature", "properties": { "fid": 13.0, "id": 6280.0, "left": 1159000.632258716, "top": 1898057.9448048582, "right": 1162049.0416800373, "bottom": 1895417.9448048582, "nearest_bus_station_name": "Western & Polk", "nearest_bus_station_distance": 0.084277936350631993 }, "geometry": { "type": "Point", "coordinates": [ -87.686114197689562, 41.872348664423221 ] } },
{ "type": "Feature", "properties": { "fid": 14.0, "id": 6281.0, "left": 1159000.632258716, "top": 1895417.9448048582, "right": 1162049.0416800373, "bottom": 1892777.9448048582, "nearest_bus_station_name": "Ogden & Western", "nearest_bus_station_distance": 0.041222149076351002 }, "geometry": { "type": "Point", "coordinates": [ -87.68618722360884, 41.865104255541461 ] } },
{ "type": "Feature", "properties": { "fid": 15.0, "id": 6286.0, "left": 1159000.632258716, "top": 1882217.9448048582, "right": 1162049.0416800373, "bottom": 1879577.9448048582, "nearest_bus_station_name": "35th Street & Artesian", "nearest_bus_station_distance": 0.091750704231987001 }, "geometry": { "type": "Point", "coordinates": [ -87.686551951561498, 41.828882072154585 ] } },
{ "type": "Feature", "properties": { "fid": 16.0, "id": 8374.0, "left": 1197867.8523805616, "top": 1846577.9448048582, "right": 1200916.2618018829, "bottom": 1843937.9448048582, "nearest_bus_station_name": "91st Street & Buffalo", "nearest_bus_station_distance": 0.036752395775342998 }, "geometry": { "type": "Point", "coordinates": [ -87.545150424962628, 41.73019237411139 ] } },
{ "type": "Feature", "properties": { "fid": 17.0, "id": 6287.0, "left": 1159000.632258716, "top": 1879577.9448048582, "right": 1162049.0416800373, "bottom": 1876937.9448048582, "nearest_bus_station_name": "Western & Pershing", "nearest_bus_station_distance": 0.118112769106082 }, "geometry": { "type": "Point", "coordinates": [ -87.686624816902807, 41.821637607683599 ] } },
{ "type": "Feature", "properties": { "fid": 18.0, "id": 8375.0, "left": 1197867.8523805616, "top": 1843937.9448048582, "right": 1200916.2618018829, "bottom": 1841297.9448048582, "nearest_bus_station_name": "Commercial & 95th Street", "nearest_bus_station_distance": 0.29785434220343399 }, "geometry": { "type": "Point", "coordinates": [ -87.545238882627856, 41.72294794405493 ] } },
{ "type": "Feature", "properties": { "fid": 19.0, "id": 6284.0, "left": 1159000.632258716, "top": 1887497.9448048582, "right": 1162049.0416800373, "bottom": 1884857.9448048582, "nearest_bus_station_name": "Western & 26th Street", "nearest_bus_station_distance": 0.114080240780895 }, "geometry": { "type": "Point", "coordinates": [ -87.686406140663692, 41.843370973303792 ] } },
{ "type": "Feature", "properties": { "fid": 20.0, "id": 8372.0, "left": 1197867.8523805616, "top": 1851857.9448048582, "right": 1200916.2618018829, "bottom": 1849217.9448048582, "nearest_bus_station_name": "S. Shore Drive & 83rd Street", "nearest_bus_station_distance": 0.14866859301065199 }, "geometry": { "type": "Point", "coordinates": [ -87.544973412478129, 41.744681206404501 ] } },
{ "type": "Feature", "properties": { "fid": 21.0, "id": 6285.0, "left": 1159000.632258716, "top": 1884857.9448048582, "right": 1162049.0416800373, "bottom": 1882217.9448048582, "nearest_bus_station_name": "3225 S Western", "nearest_bus_station_distance": 0.13973082624632499 }, "geometry": { "type": "Point", "coordinates": [ -87.686479059485563, 41.836126527361408 ] } },
{ "type": "Feature", "properties": { "fid": 22.0, "id": 8373.0, "left": 1197867.8523805616, "top": 1849217.9448048582, "right": 1200916.2618018829, "bottom": 1846577.9448048582, "nearest_bus_station_name": "87th Street & Buffalo", "nearest_bus_station_distance": 0.023000846104244001 }, "geometry": { "type": "Point", "coordinates": [ -87.545061934917285, 41.737436794894691 ] } },
{ "type": "Feature", "properties": { "fid": 23.0, "id": 6290.0, "left": 1159000.632258716, "top": 1871657.9448048582, "right": 1162049.0416800373, "bottom": 1869017.9448048582, "nearest_bus_station_name": "51st Street & Campbell", "nearest_bus_station_distance": 0.078086591741778996 }, "geometry": { "type": "Point", "coordinates": [ -87.686843252632599, 41.799904158688605 ] } },
{ "type": "Feature", "properties": { "fid": 24.0, "id": 8378.0, "left": 1197867.8523805616, "top": 1836017.9448048582, "right": 1200916.2618018829, "bottom": 1833377.9448048582, "nearest_bus_station_name": "106th Street & Mackinaw", "nearest_bus_station_distance": 0.178788171696907 }, "geometry": { "type": "Point", "coordinates": [ -87.545504061479718, 41.701214598249514 ] } },
{ "type": "Feature", "properties": { "fid": 25.0, "id": 6291.0, "left": 1159000.632258716, "top": 1869017.9448048582, "right": 1162049.0416800373, "bottom": 1866377.9448048582, "nearest_bus_station_name": "55th Street & Artesian", "nearest_bus_station_distance": 0.10122573339362401 }, "geometry": { "type": "Point", "coordinates": [ -87.686916011148895, 41.792659657163895 ] } },
{ "type": "Feature", "properties": { "fid": 26.0, "id": 8379.0, "left": 1197867.8523805616, "top": 1833377.9448048582, "right": 1200916.2618018829, "bottom": 1830737.9448048582, "nearest_bus_station_name": "Avenue O & 112th Street", "nearest_bus_station_distance": 0.322823333248004 }, "geometry": { "type": "Point", "coordinates": [ -87.54559238976131, 41.69397013110337 ] } },
{ "type": "Feature", "properties": { "fid": 27.0, "id": 6288.0, "left": 1159000.632258716, "top": 1876937.9448048582, "right": 1162049.0416800373, "bottom": 1874297.9448048582, "nearest_bus_station_name": "Western & 43rd Street", "nearest_bus_station_distance": 0.137876160486574 }, "geometry": { "type": "Point", "coordinates": [ -87.686697655520888, 41.814393133948762 ] } },
{ "type": "Feature", "properties": { "fid": 28.0, "id": 8376.0, "left": 1197867.8523805616, "top": 1841297.9448048582, "right": 1200916.2618018829, "bottom": 1838657.9448048582, "nearest_bus_station_name": "Commercial & 99th Street", "nearest_bus_station_distance": 0.28687637128679599 }, "geometry": { "type": "Point", "coordinates": [ -87.545327307926655, 41.715703504725603 ] } },
{ "type": "Feature", "properties": { "fid": 29.0, "id": 6289.0, "left": 1159000.632258716, "top": 1874297.9448048582, "right": 1162049.0416800373, "bottom": 1871657.9448048582, "nearest_bus_station_name": "47th Street & Campbell", "nearest_bus_station_distance": 0.081856033441849996 }, "geometry": { "type": "Point", "coordinates": [ -87.686770467427039, 41.807148650950339 ] } },
{ "type": "Feature", "properties": { "fid": 30.0, "id": 8377.0, "left": 1197867.8523805616, "top": 1838657.9448048582, "right": 1200916.2618018829, "bottom": 1836017.9448048582, "nearest_bus_station_name": "Commercial & 102nd Street", "nearest_bus_station_distance": 0.36507578206628599 }, "geometry": { "type": "Point", "coordinates": [ -87.545415700872724, 41.708459056123708 ] } },
{ "type": "Feature", "properties": { "fid": 31.0, "id": 6294.0, "left": 1159000.632258716, "top": 1861097.9448048582, "right": 1162049.0416800373, "bottom": 1858457.9448048582, "nearest_bus_station_name": "Western & Marquette Rd", "nearest_bus_station_distance": 0.19365977499765299 }, "geometry": { "type": "Point", "coordinates": [ -87.687134126675247, 41.77092609701463 ] } },
{ "type": "Feature", "properties": { "fid": 32.0, "id": 8382.0, "left": 1197867.8523805616, "top": 1825457.9448048582, "right": 1200916.2618018829, "bottom": 1822817.9448048582, "nearest_bus_station_name": "12243 S Avenue O", "nearest_bus_station_distance": 0.29631544371596502 }, "geometry": { "type": "Point", "coordinates": [ -87.545857180790321, 41.672236674036085 ] } },
{ "type": "Feature", "properties": { "fid": 33.0, "id": 6295.0, "left": 1159000.632258716, "top": 1858457.9448048582, "right": 1162049.0416800373, "bottom": 1855817.9448048582, "nearest_bus_station_name": "71st Street & Rockwell", "nearest_bus_station_distance": 0.075197203147592998 }, "geometry": { "type": "Point", "coordinates": [ -87.687206778547534, 41.763681558440801 ] } },
{ "type": "Feature", "properties": { "fid": 34.0, "id": 8383.0, "left": 1197867.8523805616, "top": 1822817.9448048582, "right": 1200916.2618018829, "bottom": 1820177.9448048582, "nearest_bus_station_name": "12800 S Avenue O", "nearest_bus_station_distance": 0.32270192049052598 }, "geometry": { "type": "Point", "coordinates": [ -87.54594537990684, 41.664992169805046 ] } },
{ "type": "Feature", "properties": { "fid": 35.0, "id": 6292.0, "left": 1159000.632258716, "top": 1866377.9448048582, "right": 1162049.0416800373, "bottom": 1863737.9448048582, "nearest_bus_station_name": "59th Street & Campbell", "nearest_bus_station_distance": 0.077600607599030993 }, "geometry": { "type": "Point", "coordinates": [ -87.686988742987225, 41.785415146376465 ] } },
{ "type": "Feature", "properties": { "fid": 36.0, "id": 8380.0, "left": 1197867.8523805616, "top": 1830737.9448048582, "right": 1200916.2618018829, "bottom": 1828097.9448048582, "nearest_bus_station_name": "Avenue O & 114th Street", "nearest_bus_station_distance": 0.30359161701481602 }, "geometry": { "type": "Point", "coordinates": [ -87.545680685731199, 41.686725654685539 ] } },
{ "type": "Feature", "properties": { "fid": 37.0, "id": 6293.0, "left": 1159000.632258716, "top": 1863737.9448048582, "right": 1162049.0416800373, "bottom": 1861097.9448048582, "nearest_bus_station_name": "63rd Street & Campbell", "nearest_bus_station_distance": 0.082015014290788002 }, "geometry": { "type": "Point", "coordinates": [ -87.687061448158914, 41.778170626326606 ] } },
{ "type": "Feature", "properties": { "fid": 38.0, "id": 8381.0, "left": 1197867.8523805616, "top": 1828097.9448048582, "right": 1200916.2618018829, "bottom": 1825457.9448048582, "nearest_bus_station_name": "11919 S Avenue O", "nearest_bus_station_distance": 0.29142880845938202 }, "geometry": { "type": "Point", "coordinates": [ -87.545768949402969, 41.67948116899634 ] } },
{ "type": "Feature", "properties": { "fid": 39.0, "id": 6298.0, "left": 1159000.632258716, "top": 1850537.9448048582, "right": 1162049.0416800373, "bottom": 1847897.9448048582, "nearest_bus_station_name": "2600 W 87th Street", "nearest_bus_station_distance": 0.44150939533249101 }, "geometry": { "type": "Point", "coordinates": [ -87.687424595553068, 41.741947855439044 ] } },
{ "type": "Feature", "properties": { "fid": 40.0, "id": 6299.0, "left": 1159000.632258716, "top": 1847897.9448048582, "right": 1162049.0416800373, "bottom": 1845257.9448048582, "nearest_bus_station_name": "2600 W 87th Street", "nearest_bus_station_distance": 0.040182114205888998 }, "geometry": { "type": "Point", "coordinates": [ -87.68749716003073, 41.734703251324348 ] } },
{ "type": "Feature", "properties": { "fid": 41.0, "id": 6296.0, "left": 1159000.632258716, "top": 1855817.9448048582, "right": 1162049.0416800373, "bottom": 1853177.9448048582, "nearest_bus_station_name": "Western & 76th Street", "nearest_bus_station_distance": 0.22578749990054001 }, "geometry": { "type": "Point", "coordinates": [ -87.687279403787031, 41.756437010605431 ] } },
{ "type": "Feature", "properties": { "fid": 42.0, "id": 6297.0, "left": 1159000.632258716, "top": 1853177.9448048582, "right": 1162049.0416800373, "bottom": 1850537.9448048582, "nearest_bus_station_name": "79th Street & Talman", "nearest_bus_station_distance": 0.096476054601042999 }, "geometry": { "type": "Point", "coordinates": [ -87.687352004525735, 41.749192450321878 ] } },
{ "type": "Feature", "properties": { "fid": 43.0, "id": 6302.0, "left": 1159000.632258716, "top": 1839977.9448048582, "right": 1162049.0416800373, "bottom": 1837337.9448048582, "nearest_bus_station_name": "103rd Street & Talman", "nearest_bus_station_distance": 0.45142189553314599 }, "geometry": { "type": "Point", "coordinates": [ -87.687714694278, 41.712969383591798 ] } },
{ "type": "Feature", "properties": { "fid": 44.0, "id": 6303.0, "left": 1159000.632258716, "top": 1837337.9448048582, "right": 1162049.0416800373, "bottom": 1834697.9448048582, "nearest_bus_station_name": "103rd Street & Talman", "nearest_bus_station_distance": 0.038250283302007998 }, "geometry": { "type": "Point", "coordinates": [ -87.68778715266923, 41.705724742552391 ] } },
{ "type": "Feature", "properties": { "fid": 45.0, "id": 6300.0, "left": 1159000.632258716, "top": 1845257.9448048582, "right": 1162049.0416800373, "bottom": 1842617.9448048582, "nearest_bus_station_name": "Western & 91st Street", "nearest_bus_station_distance": 0.26970431267507999 }, "geometry": { "type": "Point", "coordinates": [ -87.687569697969977, 41.727458637978067 ] } },
{ "type": "Feature", "properties": { "fid": 46.0, "id": 6382.0, "left": 1161286.939324707, "top": 1952177.9448048582, "right": 1164335.3487460283, "bottom": 1949537.9448048582, "nearest_bus_station_name": "Howard & Chicago Avenue", "nearest_bus_station_distance": 0.092008909144599998 }, "geometry": { "type": "Point", "coordinates": [ -87.676197772529733, 42.020809116815855 ] } },
{ "type": "Feature", "properties": { "fid": 47.0, "id": 6383.0, "left": 1161286.939324707, "top": 1949537.9448048582, "right": 1164335.3487460283, "bottom": 1946897.9448048582, "nearest_bus_station_name": "Clark & Chase", "nearest_bus_station_distance": 0.077157824230294006 }, "geometry": { "type": "Point", "coordinates": [ -87.676272285261859, 42.013564925272171 ] } },
{ "type": "Feature", "properties": { "fid": 48.0, "id": 6386.0, "left": 1161286.939324707, "top": 1941617.9448048582, "right": 1164335.3487460283, "bottom": 1938977.9448048582, "nearest_bus_station_name": "Peterson & Wolcott", "nearest_bus_station_distance": 0.07121511350668 }, "geometry": { "type": "Point", "coordinates": [ -87.676495680616057, 41.991832277188792 ] } },
{ "type": "Feature", "properties": { "fid": 49.0, "id": 6387.0, "left": 1161286.939324707, "top": 1938977.9448048582, "right": 1164335.3487460283, "bottom": 1936337.9448048582, "nearest_bus_station_name": "Ashland & Hollywood", "nearest_bus_station_distance": 0.35491652609493202 }, "geometry": { "type": "Point", "coordinates": [ -87.676570102889485, 41.984588032803529 ] } },
{ "type": "Feature", "properties": { "fid": 50.0, "id": 6384.0, "left": 1161286.939324707, "top": 1946897.9448048582, "right": 1164335.3487460283, "bottom": 1944257.9448048582, "nearest_bus_station_name": "Clark & Morse", "nearest_bus_station_distance": 0.16936080880611901 }, "geometry": { "type": "Point", "coordinates": [ -87.676346770606429, 42.006320724435177 ] } },
{ "type": "Feature", "properties": { "fid": 51.0, "id": 6385.0, "left": 1161286.939324707, "top": 1944257.9448048582, "right": 1164335.3487460283, "bottom": 1941617.9448048582, "nearest_bus_station_name": "Devon & Ridge", "nearest_bus_station_distance": 0.079313737382440005 }, "geometry": { "type": "Point", "coordinates": [ -87.676421231001058, 41.999076512301002 ] } },
{ "type": "Feature", "properties": { "fid": 52.0, "id": 6390.0, "left": 1161286.939324707, "top": 1931057.9448048582, "right": 1164335.3487460283, "bottom": 1928417.9448048582, "nearest_bus_station_name": "Montrose & Winchester", "nearest_bus_station_distance": 0.096158515677567002 }, "geometry": { "type": "Point", "coordinates": [ -87.676793205776676, 41.962855244012097 ] } },
{ "type": "Feature", "properties": { "fid": 53.0, "id": 6391.0, "left": 1161286.939324707, "top": 1928417.9448048582, "right": 1164335.3487460283, "bottom": 1925777.9448048582, "nearest_bus_station_name": "Damen & Belle Plaine", "nearest_bus_station_distance": 0.098054983649895996 }, "geometry": { "type": "Point", "coordinates": [ -87.676867518800165, 41.955610962537349 ] } },
{ "type": "Feature", "properties": { "fid": 54.0, "id": 6388.0, "left": 1161286.939324707, "top": 1936337.9448048582, "right": 1164335.3487460283, "bottom": 1933697.9448048582, "nearest_bus_station_name": "Foster & Wolcott", "nearest_bus_station_distance": 0.086324598753565004 }, "geometry": { "type": "Point", "coordinates": [ -87.676644497832967, 41.977343779145471 ] } },
{ "type": "Feature", "properties": { "fid": 55.0, "id": 6389.0, "left": 1161286.939324707, "top": 1933697.9448048582, "right": 1164335.3487460283, "bottom": 1931057.9448048582, "nearest_bus_station_name": "Lawrence & Wolcott", "nearest_bus_station_distance": 0.085157463535798006 }, "geometry": { "type": "Point", "coordinates": [ -87.676718865458142, 41.970099516214901 ] } },
{ "type": "Feature", "properties": { "fid": 56.0, "id": 6394.0, "left": 1161286.939324707, "top": 1920497.9448048582, "right": 1164335.3487460283, "bottom": 1917857.9448048582, "nearest_bus_station_name": "Damen & George", "nearest_bus_station_distance": 0.052935837444701997 }, "geometry": { "type": "Point", "coordinates": [ -87.677090294216612, 41.933878062484105 ] } },
{ "type": "Feature", "properties": { "fid": 57.0, "id": 6395.0, "left": 1161286.939324707, "top": 1917857.9448048582, "right": 1164335.3487460283, "bottom": 1915217.9448048582, "nearest_bus_station_name": "Damen & Fullerton", "nearest_bus_station_distance": 0.098975719285450001 }, "geometry": { "type": "Point", "coordinates": [ -87.677164498176097, 41.926633743924306 ] } },
{ "type": "Feature", "properties": { "fid": 58.0, "id": 6392.0, "left": 1161286.939324707, "top": 1925777.9448048582, "right": 1164335.3487460283, "bottom": 1923137.9448048582, "nearest_bus_station_name": "Damen & Waveland", "nearest_bus_station_distance": 0.083245797411737002 }, "geometry": { "type": "Point", "coordinates": [ -87.676941804540249, 41.948366671790914 ] } },
{ "type": "Feature", "properties": { "fid": 59.0, "id": 6393.0, "left": 1161286.939324707, "top": 1923137.9448048582, "right": 1164335.3487460283, "bottom": 1920497.9448048582, "nearest_bus_station_name": "Damen & School", "nearest_bus_station_distance": 0.068691192776901 }, "geometry": { "type": "Point", "coordinates": [ -87.677016063008523, 41.941122371773076 ] } },
{ "type": "Feature", "properties": { "fid": 60.0, "id": 6398.0, "left": 1161286.939324707, "top": 1909937.9448048582, "right": 1164335.3487460283, "bottom": 1907297.9448048582, "nearest_bus_station_name": "Damen & Potomac", "nearest_bus_station_distance": 0.0083321905117970003 }, "geometry": { "type": "Point", "coordinates": [ -87.677386946678865, 41.904900732622657 ] } },
{ "type": "Feature", "properties": { "fid": 61.0, "id": 6399.0, "left": 1161286.939324707, "top": 1907297.9448048582, "right": 1164335.3487460283, "bottom": 1904657.9448048582, "nearest_bus_station_name": "Damen & Iowa", "nearest_bus_station_distance": 0.019813939577605001 }, "geometry": { "type": "Point", "coordinates": [ -87.677461041759827, 41.897656376982297 ] } },
{ "type": "Feature", "properties": { "fid": 62.0, "id": 6396.0, "left": 1161286.939324707, "top": 1915217.9448048582, "right": 1164335.3487460283, "bottom": 1912577.9448048582, "nearest_bus_station_name": "Damen & Dickens", "nearest_bus_station_distance": 0.020200672998922999 }, "geometry": { "type": "Point", "coordinates": [ -87.677238674898575, 41.919389416093949 ] } },
{ "type": "Feature", "properties": { "fid": 63.0, "id": 6397.0, "left": 1161286.939324707, "top": 1912577.9448048582, "right": 1164335.3487460283, "bottom": 1909937.9448048582, "nearest_bus_station_name": "Damen & Wabansia", "nearest_bus_station_distance": 0.0078148606988040006 }, "geometry": { "type": "Point", "coordinates": [ -87.677312824395642, 41.912145078993298 ] } },
{ "type": "Feature", "properties": { "fid": 64.0, "id": 4310.0, "left": 1122419.7192028614, "top": 1945577.9448048582, "right": 1125468.1286241827, "bottom": 1942937.9448048582, "nearest_bus_station_name": "Northwest Hwy & Overhill", "nearest_bus_station_distance": 0.070949740227218006 }, "geometry": { "type": "Point", "coordinates": [ -87.819375908132187, 42.003427701379657 ] } },
{ "type": "Feature", "properties": { "fid": 65.0, "id": 4311.0, "left": 1122419.7192028614, "top": 1942937.9448048582, "right": 1125468.1286241827, "bottom": 1940297.9448048582, "nearest_bus_station_name": "Devon & Overhill", "nearest_bus_station_distance": 0.049547531200585998 }, "geometry": { "type": "Point", "coordinates": [ -87.819434157355161, 41.996183292822479 ] } },
{ "type": "Feature", "properties": { "fid": 66.0, "id": 4308.0, "left": 1122419.7192028614, "top": 1950857.9448048582, "right": 1125468.1286241827, "bottom": 1948217.9448048582, "nearest_bus_station_name": "Northwest Hwy & Euclid", "nearest_bus_station_distance": 0.69377029970431503 }, "geometry": { "type": "Point", "coordinates": [ -87.81925935577587, 42.017916482060421 ] } },
{ "type": "Feature", "properties": { "fid": 67.0, "id": 4309.0, "left": 1122419.7192028614, "top": 1948217.9448048582, "right": 1125468.1286241827, "bottom": 1945577.9448048582, "nearest_bus_station_name": "Northwest Hwy & Merrill", "nearest_bus_station_distance": 0.31211332975296402 }, "geometry": { "type": "Point", "coordinates": [ -87.819317642652692, 42.010672096340784 ] } },
{ "type": "Feature", "properties": { "fid": 68.0, "id": 4314.0, "left": 1122419.7192028614, "top": 1935017.9448048582, "right": 1125468.1286241827, "bottom": 1932377.9448048582, "nearest_bus_station_name": "Lawrence & Overhill", "nearest_bus_station_distance": 0.51224663044972496 }, "geometry": { "type": "Point", "coordinates": [ -87.819608790473822, 41.97444999996091 ] } },
{ "type": "Feature", "properties": { "fid": 69.0, "id": 4315.0, "left": 1122419.7192028614, "top": 1932377.9448048582, "right": 1125468.1286241827, "bottom": 1929737.9448048582, "nearest_bus_station_name": "Lawrence & Overhill", "nearest_bus_station_distance": 0.025290937426142 }, "geometry": { "type": "Point", "coordinates": [ -87.819666958748456, 41.967205550519132 ] } },
{ "type": "Feature", "properties": { "fid": 70.0, "id": 4312.0, "left": 1122419.7192028614, "top": 1940297.9448048582, "right": 1125468.1286241827, "bottom": 1937657.9448048582, "nearest_bus_station_name": "Talcott & Oriole", "nearest_bus_station_distance": 0.18643059654802499 }, "geometry": { "type": "Point", "coordinates": [ -87.819492389786305, 41.98893887111285 ] } },
{ "type": "Feature", "properties": { "fid": 71.0, "id": 4313.0, "left": 1122419.7192028614, "top": 1937657.9448048582, "right": 1125468.1286241827, "bottom": 1935017.9448048582, "nearest_bus_station_name": "Harlem Blue Line Station", "nearest_bus_station_distance": 0.57199731891169503 }, "geometry": { "type": "Point", "coordinates": [ -87.819550600822808, 41.981694440158904 ] } },
{ "type": "Feature", "properties": { "fid": 72.0, "id": 4318.0, "left": 1122419.7192028614, "top": 1924457.9448048582, "right": 1125468.1286241827, "bottom": 1921817.9448048582, "nearest_bus_station_name": "Addison & Overhill", "nearest_bus_station_distance": 0.022053670310614001 }, "geometry": { "type": "Point", "coordinates": [ -87.819841335405073, 41.945472146733756 ] } },
{ "type": "Feature", "properties": { "fid": 73.0, "id": 4319.0, "left": 1122419.7192028614, "top": 1921817.9448048582, "right": 1125468.1286241827, "bottom": 1919177.9448048582, "nearest_bus_station_name": "Belmont & Overhill (77th Avenue)", "nearest_bus_station_distance": 0.039258408871177 }, "geometry": { "type": "Point", "coordinates": [ -87.819899418265152, 41.938227660319477 ] } },
{ "type": "Feature", "properties": { "fid": 74.0, "id": 8386.0, "left": 1197867.8523805616, "top": 1814897.9448048582, "right": 1200916.2618018829, "bottom": 1812257.9448048582, "nearest_bus_station_name": "Hegewisch Metra Station", "nearest_bus_station_distance": 0.25477083591262101 }, "geometry": { "type": "Point", "coordinates": [ -87.546209783767821, 41.643258601490402 ] } },
{ "type": "Feature", "properties": { "fid": 75.0, "id": 4317.0, "left": 1122419.7192028614, "top": 1927097.9448048582, "right": 1125468.1286241827, "bottom": 1924457.9448048582, "nearest_bus_station_name": "Irving Park & Overhill", "nearest_bus_station_distance": 0.024299498100247001 }, "geometry": { "type": "Point", "coordinates": [ -87.819783231204994, 41.952716623905282 ] } },
{ "type": "Feature", "properties": { "fid": 76.0, "id": 8384.0, "left": 1197867.8523805616, "top": 1820177.9448048582, "right": 1200916.2618018829, "bottom": 1817537.9448048582, "nearest_bus_station_name": "130th Street & Baltimore", "nearest_bus_station_distance": 0.112843297405021 }, "geometry": { "type": "Point", "coordinates": [ -87.546033546766211, 41.657747656303563 ] } },
{ "type": "Feature", "properties": { "fid": 77.0, "id": 8385.0, "left": 1197867.8523805616, "top": 1817537.9448048582, "right": 1200916.2618018829, "bottom": 1814897.9448048582, "nearest_bus_station_name": "Baltimore & Brainard", "nearest_bus_station_distance": 0.081945671446915003 }, "geometry": { "type": "Point", "coordinates": [ -87.54612168138199, 41.650503133531906 ] } },
{ "type": "Feature", "properties": { "fid": 78.0, "id": 6402.0, "left": 1161286.939324707, "top": 1899377.9448048582, "right": 1164335.3487460283, "bottom": 1896737.9448048582, "nearest_bus_station_name": "Damen Blue Line Station", "nearest_bus_station_distance": 0.073883809099393002 }, "geometry": { "type": "Point", "coordinates": [ -87.677683163904646, 41.875923254445752 ] } },
{ "type": "Feature", "properties": { "fid": 79.0, "id": 6403.0, "left": 1161286.939324707, "top": 1896737.9448048582, "right": 1164335.3487460283, "bottom": 1894097.9448048582, "nearest_bus_station_name": "Taylor & Damen", "nearest_bus_station_distance": 0.058134329022611002 }, "geometry": { "type": "Point", "coordinates": [ -87.677757150292095, 41.86867886172935 ] } },
{ "type": "Feature", "properties": { "fid": 80.0, "id": 6400.0, "left": 1161286.939324707, "top": 1904657.9448048582, "right": 1164335.3487460283, "bottom": 1902017.9448048582, "nearest_bus_station_name": "Damen & Grand", "nearest_bus_station_distance": 0.031209730629129 }, "geometry": { "type": "Point", "coordinates": [ -87.677535109650066, 41.890412012072495 ] } },
{ "type": "Feature", "properties": { "fid": 81.0, "id": 6401.0, "left": 1161286.939324707, "top": 1902017.9448048582, "right": 1164335.3487460283, "bottom": 1899377.9448048582, "nearest_bus_station_name": "Damen & Washington", "nearest_bus_station_distance": 0.045849950842238002 }, "geometry": { "type": "Point", "coordinates": [ -87.677609150361164, 41.883167637893543 ] } },
{ "type": "Feature", "properties": { "fid": 82.0, "id": 6406.0, "left": 1161286.939324707, "top": 1888817.9448048582, "right": 1164335.3487460283, "bottom": 1886177.9448048582, "nearest_bus_station_name": "Blue Island & Hoyne", "nearest_bus_station_distance": 0.047059442105259003 }, "geometry": { "type": "Point", "coordinates": [ -87.677978946633317, 41.846945627971529 ] } },
{ "type": "Feature", "properties": { "fid": 83.0, "id": 6407.0, "left": 1161286.939324707, "top": 1886177.9448048582, "right": 1164335.3487460283, "bottom": 1883537.9448048582, "nearest_bus_station_name": "2608 S Damen", "nearest_bus_station_distance": 0.36759748728370001 }, "geometry": { "type": "Point", "coordinates": [ -87.678052824511809, 41.839701198183661 ] } },
{ "type": "Feature", "properties": { "fid": 84.0, "id": 8494.0, "left": 1200154.1594465526, "top": 1850537.9448048582, "right": 1203202.5688678739, "bottom": 1847897.9448048582, "nearest_bus_station_name": "87th Street & Buffalo", "nearest_bus_station_distance": 0.48160768195181802 }, "geometry": { "type": "Point", "coordinates": [ -87.536641006494079, 41.741001220374578 ] } },
{ "type": "Feature", "properties": { "fid": 85.0, "id": 6404.0, "left": 1161286.939324707, "top": 1894097.9448048582, "right": 1164335.3487460283, "bottom": 1891457.9448048582, "nearest_bus_station_name": "Damen & 14th Street", "nearest_bus_station_distance": 0.14582715684207201 }, "geometry": { "type": "Point", "coordinates": [ -87.677831109534992, 41.861434459744672 ] } },
{ "type": "Feature", "properties": { "fid": 86.0, "id": 8495.0, "left": 1200154.1594465526, "top": 1847897.9448048582, "right": 1203202.5688678739, "bottom": 1845257.9448048582, "nearest_bus_station_name": "Buffalo & 89th Street", "nearest_bus_station_distance": 0.39845382624855802 }, "geometry": { "type": "Point", "coordinates": [ -87.536730450398139, 41.733756816674244 ] } },
{ "type": "Feature", "properties": { "fid": 87.0, "id": 6405.0, "left": 1161286.939324707, "top": 1891457.9448048582, "right": 1164335.3487460283, "bottom": 1888817.9448048582, "nearest_bus_station_name": "Damen Pink Line Station", "nearest_bus_station_distance": 0.10164330731681601 }, "geometry": { "type": "Point", "coordinates": [ -87.677905041644905, 41.854190048491958 ] } },
{ "type": "Feature", "properties": { "fid": 88.0, "id": 8492.0, "left": 1200154.1594465526, "top": 1855817.9448048582, "right": 1203202.5688678739, "bottom": 1853177.9448048582, "nearest_bus_station_name": "79th Street & Lake Shore Drive", "nearest_bus_station_distance": 0.50284212306831 }, "geometry": { "type": "Point", "coordinates": [ -87.536461996042277, 41.755489955619645 ] } },
{ "type": "Feature", "properties": { "fid": 89.0, "id": 6410.0, "left": 1161286.939324707, "top": 1878257.9448048582, "right": 1164335.3487460283, "bottom": 1875617.9448048582, "nearest_bus_station_name": "4102 S Western", "nearest_bus_station_distance": 0.34144734260274801 }, "geometry": { "type": "Point", "coordinates": [ -87.678274295602449, 41.817967853218263 ] } },
{ "type": "Feature", "properties": { "fid": 90.0, "id": 8493.0, "left": 1200154.1594465526, "top": 1853177.9448048582, "right": 1203202.5688678739, "bottom": 1850537.9448048582, "nearest_bus_station_name": "79th Street & Lake Shore Drive", "nearest_bus_station_distance": 0.49934640521996398 }, "geometry": { "type": "Point", "coordinates": [ -87.536551529845227, 41.748245614798535 ] } },
{ "type": "Feature", "properties": { "fid": 91.0, "id": 6411.0, "left": 1161286.939324707, "top": 1875617.9448048582, "right": 1164335.3487460283, "bottom": 1872977.9448048582, "nearest_bus_station_name": "47th Street & Hoyne", "nearest_bus_station_distance": 0.156406344523941 }, "geometry": { "type": "Point", "coordinates": [ -87.678348065156072, 41.810723386363499 ] } },
{ "type": "Feature", "properties": { "fid": 92.0, "id": 8498.0, "left": 1200154.1594465526, "top": 1839977.9448048582, "right": 1203202.5688678739, "bottom": 1837337.9448048582, "nearest_bus_station_name": "Ewing & Indianapolis", "nearest_bus_station_distance": 0.092515479940106005 }, "geometry": { "type": "Point", "coordinates": [ -87.536998585780012, 41.712023549917944 ] } },
{ "type": "Feature", "properties": { "fid": 93.0, "id": 6408.0, "left": 1161286.939324707, "top": 1883537.9448048582, "right": 1164335.3487460283, "bottom": 1880897.9448048582, "nearest_bus_station_name": "Archer & 35th Street\/Hoyne", "nearest_bus_station_distance": 0.13545643492027801 }, "geometry": { "type": "Point", "coordinates": [ -87.678126675291807, 41.832456759128618 ] } },
{ "type": "Feature", "properties": { "fid": 94.0, "id": 8499.0, "left": 1200154.1594465526, "top": 1837337.9448048582, "right": 1203202.5688678739, "bottom": 1834697.9448048582, "nearest_bus_station_name": "Ewing & 105th Street", "nearest_bus_station_distance": 0.087553570512339002 }, "geometry": { "type": "Point", "coordinates": [ -87.537087898843325, 41.70477910911508 ] } },
{ "type": "Feature", "properties": { "fid": 95.0, "id": 6409.0, "left": 1161286.939324707, "top": 1880897.9448048582, "right": 1164335.3487460283, "bottom": 1878257.9448048582, "nearest_bus_station_name": "Pershing & Leavitt", "nearest_bus_station_distance": 0.172179028918863 }, "geometry": { "type": "Point", "coordinates": [ -87.678200498984864, 41.825212310806727 ] } },
{ "type": "Feature", "properties": { "fid": 96.0, "id": 8496.0, "left": 1200154.1594465526, "top": 1845257.9448048582, "right": 1203202.5688678739, "bottom": 1842617.9448048582, "nearest_bus_station_name": "Ewing & 94th Street", "nearest_bus_station_distance": 0.13011327841741999 }, "geometry": { "type": "Point", "coordinates": [ -87.53681986157126, 41.726512403697839 ] } },
{ "type": "Feature", "properties": { "fid": 97.0, "id": 6414.0, "left": 1161286.939324707, "top": 1867697.9448048582, "right": 1164335.3487460283, "bottom": 1865057.9448048582, "nearest_bus_station_name": "59th Street & Hoyne", "nearest_bus_station_distance": 0.18363870401781601 }, "geometry": { "type": "Point", "coordinates": [ -87.678569211547781, 41.788989930204409 ] } },
{ "type": "Feature", "properties": { "fid": 98.0, "id": 8497.0, "left": 1200154.1594465526, "top": 1842617.9448048582, "right": 1203202.5688678739, "bottom": 1839977.9448048582, "nearest_bus_station_name": "Ewing & 97th Street", "nearest_bus_station_distance": 0.081286212491484003 }, "geometry": { "type": "Point", "coordinates": [ -87.536909240027271, 41.71926798144564 ] } },
{ "type": "Feature", "properties": { "fid": 99.0, "id": 6415.0, "left": 1161286.939324707, "top": 1865057.9448048582, "right": 1164335.3487460283, "bottom": 1862417.9448048582, "nearest_bus_station_name": "63rd Street & Hoyne", "nearest_bus_station_distance": 0.207152589943812 }, "geometry": { "type": "Point", "coordinates": [ -87.678642872960182, 41.781745426287394 ] } },
{ "type": "Feature", "properties": { "fid": 100.0, "id": 8502.0, "left": 1200154.1594465526, "top": 1829417.9448048582, "right": 1203202.5688678739, "bottom": 1826777.9448048582, "nearest_bus_station_name": "118th Street & Lake Point Plaza (3600 E)", "nearest_bus_station_distance": 0.077249224496145005 }, "geometry": { "type": "Point", "coordinates": [ -87.537355642034726, 41.683045731058399 ] } },
{ "type": "Feature", "properties": { "fid": 101.0, "id": 6412.0, "left": 1161286.939324707, "top": 1872977.9448048582, "right": 1164335.3487460283, "bottom": 1870337.9448048582, "nearest_bus_station_name": "51st Street & Leavitt", "nearest_bus_station_distance": 0.15596277236925599 }, "geometry": { "type": "Point", "coordinates": [ -87.678421807657173, 41.803478910242738 ] } },
{ "type": "Feature", "properties": { "fid": 102.0, "id": 8503.0, "left": 1200154.1594465526, "top": 1826777.9448048582, "right": 1203202.5688678739, "bottom": 1824137.9448048582, "nearest_bus_station_name": "Avenue O & Ewing (12000 South)", "nearest_bus_station_distance": 0.12655712298761501 }, "geometry": { "type": "Point", "coordinates": [ -87.537444824478342, 41.675801253157807 ] } },
{ "type": "Feature", "properties": { "fid": 103.0, "id": 6413.0, "left": 1161286.939324707, "top": 1870337.9448048582, "right": 1164335.3487460283, "bottom": 1867697.9448048582, "nearest_bus_station_name": "Garfield & Hamilton", "nearest_bus_station_distance": 0.15857579486767301 }, "geometry": { "type": "Point", "coordinates": [ -87.678495523117263, 41.796234424856287 ] } },
{ "type": "Feature", "properties": { "fid": 104.0, "id": 8500.0, "left": 1200154.1594465526, "top": 1834697.9448048582, "right": 1203202.5688678739, "bottom": 1832057.9448048582, "nearest_bus_station_name": "Ewing & 109th Street", "nearest_bus_station_distance": 0.093830666867251 }, "geometry": { "type": "Point", "coordinates": [ -87.537177179231008, 41.697534659037331 ] } },
{ "type": "Feature", "properties": { "fid": 105.0, "id": 6418.0, "left": 1161286.939324707, "top": 1857137.9448048582, "right": 1164335.3487460283, "bottom": 1854497.9448048582, "nearest_bus_station_name": "Western & 74th Street", "nearest_bus_station_distance": 0.21814588763565201 }, "geometry": { "type": "Point", "coordinates": [ -87.678863695203205, 41.760011858948516 ] } },
{ "type": "Feature", "properties": { "fid": 106.0, "id": 8501.0, "left": 1200154.1594465526, "top": 1832057.9448048582, "right": 1203202.5688678739, "bottom": 1829417.9448048582, "nearest_bus_station_name": "112th Street & Avenue M", "nearest_bus_station_distance": 0.105979100326454 }, "geometry": { "type": "Point", "coordinates": [ -87.537266426956862, 41.690290199685002 ] } },
{ "type": "Feature", "properties": { "fid": 107.0, "id": 8506.0, "left": 1200154.1594465526, "top": 1818857.9448048582, "right": 1203202.5688678739, "bottom": 1816217.9448048582, "nearest_bus_station_name": "Avenue O & 133rd Street", "nearest_bus_station_distance": 0.10855307719476701 }, "geometry": { "type": "Point", "coordinates": [ -87.537712176141667, 41.654067763815284 ] } },
{ "type": "Feature", "properties": { "fid": 108.0, "id": 6419.0, "left": 1161286.939324707, "top": 1854497.9448048582, "right": 1164335.3487460283, "bottom": 1851857.9448048582, "nearest_bus_station_name": "79th Street & Oakley", "nearest_bus_station_distance": 0.200570190212608 }, "geometry": { "type": "Point", "coordinates": [ -87.678937248657604, 41.752767317973912 ] } },
{ "type": "Feature", "properties": { "fid": 109.0, "id": 6416.0, "left": 1161286.939324707, "top": 1862417.9448048582, "right": 1164335.3487460283, "bottom": 1859777.9448048582, "nearest_bus_station_name": "Western & 66th Street", "nearest_bus_station_distance": 0.247223601348661 }, "geometry": { "type": "Point", "coordinates": [ -87.678716507365934, 41.774500913105548 ] } },
{ "type": "Feature", "properties": { "fid": 110.0, "id": 8507.0, "left": 1200154.1594465526, "top": 1816217.9448048582, "right": 1203202.5688678739, "bottom": 1813577.9448048582, "nearest_bus_station_name": "13601 S Avenue O (Senior Bldg)", "nearest_bus_station_distance": 0.15241198591199601 }, "geometry": { "type": "Point", "coordinates": [ -87.537801228186154, 41.646823248821853 ] } },
{ "type": "Feature", "properties": { "fid": 111.0, "id": 6417.0, "left": 1161286.939324707, "top": 1859777.9448048582, "right": 1164335.3487460283, "bottom": 1857137.9448048582, "nearest_bus_station_name": "69th Street & Bell", "nearest_bus_station_distance": 0.087530865028096996 }, "geometry": { "type": "Point", "coordinates": [ -87.678790114776461, 41.767256390659156 ] } },
{ "type": "Feature", "properties": { "fid": 112.0, "id": 8504.0, "left": 1200154.1594465526, "top": 1824137.9448048582, "right": 1203202.5688678739, "bottom": 1821497.9448048582, "nearest_bus_station_name": "Avenue O & Veteran's Drive (12400 S)", "nearest_bus_station_distance": 0.068095973424090003 }, "geometry": { "type": "Point", "coordinates": [ -87.537533974301539, 41.668556765983567 ] } },
{ "type": "Feature", "properties": { "fid": 113.0, "id": 8505.0, "left": 1200154.1594465526, "top": 1821497.9448048582, "right": 1203202.5688678739, "bottom": 1818857.9448048582, "nearest_bus_station_name": "Avenue O & 130th Street", "nearest_bus_station_distance": 0.17673653351345001 }, "geometry": { "type": "Point", "coordinates": [ -87.537623091518043, 41.661312269535962 ] } },
{ "type": "Feature", "properties": { "fid": 114.0, "id": 6422.0, "left": 1161286.939324707, "top": 1846577.9448048582, "right": 1164335.3487460283, "bottom": 1843937.9448048582, "nearest_bus_station_name": "Western & 90th Street", "nearest_bus_station_distance": 0.16601638346059899 }, "geometry": { "type": "Point", "coordinates": [ -87.679157789747549, 41.731033560481791 ] } },
{ "type": "Feature", "properties": { "fid": 115.0, "id": 6423.0, "left": 1161286.939324707, "top": 1843937.9448048582, "right": 1164335.3487460283, "bottom": 1841297.9448048582, "nearest_bus_station_name": "Western & 94th Street", "nearest_bus_station_distance": 0.16375150200830099 }, "geometry": { "type": "Point", "coordinates": [ -87.67923125172905, 41.723788952338474 ] } },
{ "type": "Feature", "properties": { "fid": 116.0, "id": 6420.0, "left": 1161286.939324707, "top": 1851857.9448048582, "right": 1164335.3487460283, "bottom": 1849217.9448048582, "nearest_bus_station_name": "Damen & 82nd Street", "nearest_bus_station_distance": 0.31242387557430901 }, "geometry": { "type": "Point", "coordinates": [ -87.679010785142637, 41.74552274906727 ] } },
{ "type": "Feature", "properties": { "fid": 117.0, "id": 6421.0, "left": 1161286.939324707, "top": 1849217.9448048582, "right": 1164335.3487460283, "bottom": 1846577.9448048582, "nearest_bus_station_name": "87th Street & Western Terminal", "nearest_bus_station_distance": 0.23718438095428901 }, "geometry": { "type": "Point", "coordinates": [ -87.679084300889201, 41.738278159391498 ] } },
{ "type": "Feature", "properties": { "fid": 118.0, "id": 6426.0, "left": 1161286.939324707, "top": 1836017.9448048582, "right": 1164335.3487460283, "bottom": 1833377.9448048582, "nearest_bus_station_name": "103rd Street & Oakley", "nearest_bus_station_distance": 0.30411535152068198 }, "geometry": { "type": "Point", "coordinates": [ -87.679451476526239, 41.702055072509459 ] } },
{ "type": "Feature", "properties": { "fid": 119.0, "id": 6427.0, "left": 1161286.939324707, "top": 1833377.9448048582, "right": 1164335.3487460283, "bottom": 1830737.9448048582, "nearest_bus_station_name": "111th Street & Western", "nearest_bus_station_distance": 0.21654532972256099 }, "geometry": { "type": "Point", "coordinates": [ -87.679524831114037, 41.694810427434405 ] } },
{ "type": "Feature", "properties": { "fid": 120.0, "id": 6424.0, "left": 1161286.939324707, "top": 1841297.9448048582, "right": 1164335.3487460283, "bottom": 1838657.9448048582, "nearest_bus_station_name": "95th Street & Claremont", "nearest_bus_station_distance": 0.30488379293269202 }, "geometry": { "type": "Point", "coordinates": [ -87.679304686845114, 41.716544334961775 ] } },
{ "type": "Feature", "properties": { "fid": 121.0, "id": 6425.0, "left": 1161286.939324707, "top": 1838657.9448048582, "right": 1164335.3487460283, "bottom": 1836017.9448048582, "nearest_bus_station_name": "103rd Street & Oakley", "nearest_bus_station_distance": 0.198332308371204 }, "geometry": { "type": "Point", "coordinates": [ -87.679378095107054, 41.70929970835202 ] } },
{ "type": "Feature", "properties": { "fid": 122.0, "id": 6428.0, "left": 1161286.939324707, "top": 1830737.9448048582, "right": 1164335.3487460283, "bottom": 1828097.9448048582, "nearest_bus_station_name": "111th Street & Western", "nearest_bus_station_distance": 0.29027425020529501 }, "geometry": { "type": "Point", "coordinates": [ -87.679598158881745, 41.687565773127098 ] } },
{ "type": "Feature", "properties": { "fid": 123.0, "id": 6429.0, "left": 1161286.939324707, "top": 1828097.9448048582, "right": 1164335.3487460283, "bottom": 1825457.9448048582, "nearest_bus_station_name": "Western & 119th Street Terminal", "nearest_bus_station_distance": 0.191681126959697 }, "geometry": { "type": "Point", "coordinates": [ -87.679671459840733, 41.680321109587872 ] } },
{ "type": "Feature", "properties": { "fid": 124.0, "id": 6503.0, "left": 1163573.246390698, "top": 1953497.9448048582, "right": 1166621.6558120192, "bottom": 1950857.9448048582, "nearest_bus_station_name": "Howard & Sheridan", "nearest_bus_station_distance": 0.35823340173170698 }, "geometry": { "type": "Point", "coordinates": [ -87.667746521741719, 42.024382740867374 ] } },
{ "type": "Feature", "properties": { "fid": 125.0, "id": 6506.0, "left": 1163573.246390698, "top": 1945577.9448048582, "right": 1166621.6558120192, "bottom": 1942937.9448048582, "nearest_bus_station_name": "Pratt & Greenview", "nearest_bus_station_distance": 0.19524800102582399 }, "geometry": { "type": "Point", "coordinates": [ -87.667972882311119, 42.002650190799599 ] } },
{ "type": "Feature", "properties": { "fid": 126.0, "id": 6507.0, "left": 1163573.246390698, "top": 1942937.9448048582, "right": 1166621.6558120192, "bottom": 1940297.9448048582, "nearest_bus_station_name": "Clark & Granville", "nearest_bus_station_distance": 0.112086052979655 }, "geometry": { "type": "Point", "coordinates": [ -87.668048292042556, 41.995405978200715 ] } },
{ "type": "Feature", "properties": { "fid": 127.0, "id": 6504.0, "left": 1163573.246390698, "top": 1950857.9448048582, "right": 1166621.6558120192, "bottom": 1948217.9448048582, "nearest_bus_station_name": "Sheridan & Birchwood", "nearest_bus_station_distance": 0.12048950519735301 }, "geometry": { "type": "Point", "coordinates": [ -87.667822003004929, 42.017138566807667 ] } },
{ "type": "Feature", "properties": { "fid": 128.0, "id": 6505.0, "left": 1163573.246390698, "top": 1948217.9448048582, "right": 1166621.6558120192, "bottom": 1945577.9448048582, "nearest_bus_station_name": "Lunt & Greenview", "nearest_bus_station_distance": 0.049967765325351 }, "geometry": { "type": "Point", "coordinates": [ -87.667897456524102, 42.009894383451659 ] } },
{ "type": "Feature", "properties": { "fid": 129.0, "id": 6510.0, "left": 1163573.246390698, "top": 1935017.9448048582, "right": 1166621.6558120192, "bottom": 1932377.9448048582, "nearest_bus_station_name": "Clark & Winnemac", "nearest_bus_station_distance": 0.016314985972006001 }, "geometry": { "type": "Point", "coordinates": [ -87.668274375265725, 41.973673266320148 ] } },
{ "type": "Feature", "properties": { "fid": 130.0, "id": 6511.0, "left": 1163573.246390698, "top": 1932377.9448048582, "right": 1166621.6558120192, "bottom": 1929737.9448048582, "nearest_bus_station_name": "Clark & Leland", "nearest_bus_station_distance": 0.078044398756010006 }, "geometry": { "type": "Point", "coordinates": [ -87.668349681000294, 41.966429010476276 ] } },
{ "type": "Feature", "properties": { "fid": 131.0, "id": 6508.0, "left": 1163573.246390698, "top": 1940297.9448048582, "right": 1166621.6558120192, "bottom": 1937657.9448048582, "nearest_bus_station_name": "Ridge & Ardmore", "nearest_bus_station_distance": 0.025610357619183999 }, "geometry": { "type": "Point", "coordinates": [ -87.668123680798629, 41.988161750182677 ] } },
{ "type": "Feature", "properties": { "fid": 132.0, "id": 6509.0, "left": 1163573.246390698, "top": 1937657.9448048582, "right": 1166621.6558120192, "bottom": 1935017.9448048582, "nearest_bus_station_name": "Clark & Catalpa", "nearest_bus_station_distance": 0.046891660500432003 }, "geometry": { "type": "Point", "coordinates": [ -87.668199041869102, 41.98091751288905 ] } },
{ "type": "Feature", "properties": { "fid": 133.0, "id": 6514.0, "left": 1163573.246390698, "top": 1924457.9448048582, "right": 1166621.6558120192, "bottom": 1921817.9448048582, "nearest_bus_station_name": "Ashland & Roscoe", "nearest_bus_station_distance": 0.086344781985963001 }, "geometry": { "type": "Point", "coordinates": [ -87.668575432349499, 41.944696187297374 ] } },
{ "type": "Feature", "properties": { "fid": 134.0, "id": 6515.0, "left": 1163573.246390698, "top": 1921817.9448048582, "right": 1166621.6558120192, "bottom": 1919177.9448048582, "nearest_bus_station_name": "Ashland & Wellington", "nearest_bus_station_distance": 0.10311610994583501 }, "geometry": { "type": "Point", "coordinates": [ -87.668650627553617, 41.937451894356279 ] } },
{ "type": "Feature", "properties": { "fid": 135.0, "id": 6512.0, "left": 1163573.246390698, "top": 1929737.9448048582, "right": 1166621.6558120192, "bottom": 1927097.9448048582, "nearest_bus_station_name": "Montrose & Ashland", "nearest_bus_station_distance": 0.16386609319104001 }, "geometry": { "type": "Point", "coordinates": [ -87.668424959084589, 41.959184745357653 ] } },
{ "type": "Feature", "properties": { "fid": 136.0, "id": 6513.0, "left": 1163573.246390698, "top": 1927097.9448048582, "right": 1166621.6558120192, "bottom": 1924457.9448048582, "nearest_bus_station_name": "Ashland & Grace", "nearest_bus_station_distance": 0.088888516141950993 }, "geometry": { "type": "Point", "coordinates": [ -87.668500209530407, 41.951940470964587 ] } },
{ "type": "Feature", "properties": { "fid": 137.0, "id": 6518.0, "left": 1163573.246390698, "top": 1913897.9448048582, "right": 1166621.6558120192, "bottom": 1911257.9448048582, "nearest_bus_station_name": "Clybourn Metra Station", "nearest_bus_station_distance": 0.042680095861031997 }, "geometry": { "type": "Point", "coordinates": [ -87.668876047593614, 41.915718959892466 ] } },
{ "type": "Feature", "properties": { "fid": 138.0, "id": 6519.0, "left": 1163573.246390698, "top": 1911257.9448048582, "right": 1166621.6558120192, "bottom": 1908617.9448048582, "nearest_bus_station_name": "Ashland & Blackhawk", "nearest_bus_station_distance": 0.120813199126398 }, "geometry": { "type": "Point", "coordinates": [ -87.668951132455291, 41.908474629858645 ] } },
{ "type": "Feature", "properties": { "fid": 139.0, "id": 6516.0, "left": 1163573.246390698, "top": 1919177.9448048582, "right": 1166621.6558120192, "bottom": 1916537.9448048582, "nearest_bus_station_name": "Ashland & Wrightwood", "nearest_bus_station_distance": 0.095170075491714995 }, "geometry": { "type": "Point", "coordinates": [ -87.668725795154515, 41.930207592141556 ] } },
{ "type": "Feature", "properties": { "fid": 140.0, "id": 6517.0, "left": 1163573.246390698, "top": 1916537.9448048582, "right": 1166621.6558120192, "bottom": 1913897.9448048582, "nearest_bus_station_name": "Ashland & Webster", "nearest_bus_station_distance": 0.111922838028938 }, "geometry": { "type": "Point", "coordinates": [ -87.668800935163929, 41.922963280653534 ] } },
{ "type": "Feature", "properties": { "fid": 141.0, "id": 6522.0, "left": 1163573.246390698, "top": 1903337.9448048582, "right": 1166621.6558120192, "bottom": 1900697.9448048582, "nearest_bus_station_name": "Ashland & Fulton", "nearest_bus_station_distance": 0.099494250769522993 }, "geometry": { "type": "Point", "coordinates": [ -87.669176221749453, 41.886741584123463 ] } },
{ "type": "Feature", "properties": { "fid": 142.0, "id": 6523.0, "left": 1163573.246390698, "top": 1900697.9448048582, "right": 1166621.6558120192, "bottom": 1898057.9448048582, "nearest_bus_station_name": "Ashland & Adams", "nearest_bus_station_distance": 0.12764502879484499 }, "geometry": { "type": "Point", "coordinates": [ -87.66925119645623, 41.879497217001443 ] } },
{ "type": "Feature", "properties": { "fid": 143.0, "id": 6520.0, "left": 1163573.246390698, "top": 1908617.9448048582, "right": 1166621.6558120192, "bottom": 1905977.9448048582, "nearest_bus_station_name": "Ashland & Augusta", "nearest_bus_station_distance": 0.130524441997143 }, "geometry": { "type": "Point", "coordinates": [ -87.669026189760686, 41.901230290552341 ] } },
{ "type": "Feature", "properties": { "fid": 144.0, "id": 6521.0, "left": 1163573.246390698, "top": 1905977.9448048582, "right": 1166621.6558120192, "bottom": 1903337.9448048582, "nearest_bus_station_name": "Ashland & Erie", "nearest_bus_station_distance": 0.098530020684076999 }, "geometry": { "type": "Point", "coordinates": [ -87.669101219521508, 41.893985941973853 ] } },
{ "type": "Feature", "properties": { "fid": 145.0, "id": 6526.0, "left": 1163573.246390698, "top": 1892777.9448048582, "right": 1166621.6558120192, "bottom": 1890137.9448048582, "nearest_bus_station_name": "18th Street & Paulina (Pink Line)", "nearest_bus_station_distance": 0.019807934191964999 }, "geometry": { "type": "Point", "coordinates": [ -87.669475955566512, 41.857764060008542 ] } },
{ "type": "Feature", "properties": { "fid": 146.0, "id": 6527.0, "left": 1163573.246390698, "top": 1890137.9448048582, "right": 1166621.6558120192, "bottom": 1887497.9448048582, "nearest_bus_station_name": "Blue Island & Wood", "nearest_bus_station_distance": 0.055666505257189997 }, "geometry": { "type": "Point", "coordinates": [ -87.669550820305517, 41.850519655802906 ] } },
{ "type": "Feature", "properties": { "fid": 147.0, "id": 6524.0, "left": 1163573.246390698, "top": 1898057.9448048582, "right": 1166621.6558120192, "bottom": 1895417.9448048582, "nearest_bus_station_name": "Polk Pink Line Station", "nearest_bus_station_distance": 0.046006134524925003 }, "geometry": { "type": "Point", "coordinates": [ -87.669326143653549, 41.872252840608091 ] } },
{ "type": "Feature", "properties": { "fid": 148.0, "id": 6525.0, "left": 1163573.246390698, "top": 1895417.9448048582, "right": 1166621.6558120192, "bottom": 1892777.9448048582, "nearest_bus_station_name": "Roosevelt & Paulina", "nearest_bus_station_distance": 0.11785288935836601 }, "geometry": { "type": "Point", "coordinates": [ -87.669401063353092, 41.865008454943705 ] } },
{ "type": "Feature", "properties": { "fid": 149.0, "id": 4430.0, "left": 1124706.0262688524, "top": 1952177.9448048582, "right": 1127754.4356901736, "bottom": 1949537.9448048582, "nearest_bus_station_name": "300 S Northwest Hwy", "nearest_bus_station_distance": 1.160425760456987 }, "geometry": { "type": "Point", "coordinates": [ -87.810816397649376, 42.021500686662328 ] } },
{ "type": "Feature", "properties": { "fid": 150.0, "id": 4431.0, "left": 1124706.0262688524, "top": 1949537.9448048582, "right": 1127754.4356901736, "bottom": 1946897.9448048582, "nearest_bus_station_name": "Northwest Hwy & Ozark", "nearest_bus_station_distance": 0.77808899075779603 }, "geometry": { "type": "Point", "coordinates": [ -87.810875648152063, 42.014256315171693 ] } },
{ "type": "Feature", "properties": { "fid": 151.0, "id": 4434.0, "left": 1124706.0262688524, "top": 1941617.9448048582, "right": 1127754.4356901736, "bottom": 1938977.9448048582, "nearest_bus_station_name": "Harlem & Hood", "nearest_bus_station_distance": 0.21484290113072699 }, "geometry": { "type": "Point", "coordinates": [ -87.811053281064915, 41.992523136975777 ] } },
{ "type": "Feature", "properties": { "fid": 152.0, "id": 4435.0, "left": 1124706.0262688524, "top": 1938977.9448048582, "right": 1127754.4356901736, "bottom": 1936337.9448048582, "nearest_bus_station_name": "Talcott & Odell", "nearest_bus_station_distance": 0.15652890987502199 }, "geometry": { "type": "Point", "coordinates": [ -87.811112456098698, 41.985278720503416 ] } },
{ "type": "Feature", "properties": { "fid": 153.0, "id": 4432.0, "left": 1124706.0262688524, "top": 1946897.9448048582, "right": 1127754.4356901736, "bottom": 1944257.9448048582, "nearest_bus_station_name": "Northwest Hwy & Oliphant", "nearest_bus_station_distance": 0.39442353735284702 }, "geometry": { "type": "Point", "coordinates": [ -87.810934876902664, 42.007011934437323 ] } },
{ "type": "Feature", "properties": { "fid": 154.0, "id": 4433.0, "left": 1124706.0262688524, "top": 1944257.9448048582, "right": 1127754.4356901736, "bottom": 1941617.9448048582, "nearest_bus_station_name": "Northwest Hwy & Oketo", "nearest_bus_station_distance": 0.033131481221913998 }, "geometry": { "type": "Point", "coordinates": [ -87.810994084281816, 41.999767544201482 ] } },
{ "type": "Feature", "properties": { "fid": 155.0, "id": 4439.0, "left": 1124706.0262688524, "top": 1928417.9448048582, "right": 1127754.4356901736, "bottom": 1925777.9448048582, "nearest_bus_station_name": "4100 N. Harlem", "nearest_bus_station_distance": 0.20833036365463101 }, "geometry": { "type": "Point", "coordinates": [ -87.811348938925946, 41.95630096215271 ] } },
{ "type": "Feature", "properties": { "fid": 156.0, "id": 4436.0, "left": 1124706.0262688524, "top": 1936337.9448048582, "right": 1127754.4356901736, "bottom": 1933697.9448048582, "nearest_bus_station_name": "Harlem & Rascher", "nearest_bus_station_distance": 0.216364722304725 }, "geometry": { "type": "Point", "coordinates": [ -87.811171609392431, 41.978034294784671 ] } },
{ "type": "Feature", "properties": { "fid": 157.0, "id": 4437.0, "left": 1124706.0262688524, "top": 1933697.9448048582, "right": 1127754.4356901736, "bottom": 1931057.9448048582, "nearest_bus_station_name": "Harlem & Argyle", "nearest_bus_station_distance": 0.20612555601816901 }, "geometry": { "type": "Point", "coordinates": [ -87.811230740955381, 41.970789859819789 ] } },
{ "type": "Feature", "properties": { "fid": 158.0, "id": 4442.0, "left": 1124706.0262688524, "top": 1920497.9448048582, "right": 1127754.4356901736, "bottom": 1917857.9448048582, "nearest_bus_station_name": "Belmont & Oketo", "nearest_bus_station_distance": 0.23218065620181599 }, "geometry": { "type": "Point", "coordinates": [ -87.811526073132171, 41.934567546312792 ] } },
{ "type": "Feature", "properties": { "fid": 159.0, "id": 4443.0, "left": 1124706.0262688524, "top": 1917857.9448048582, "right": 1127754.4356901736, "bottom": 1915217.9448048582, "nearest_bus_station_name": "Harlem & Wrightwood", "nearest_bus_station_distance": 0.26367997540133498 }, "geometry": { "type": "Point", "coordinates": [ -87.811585074504606, 41.927323055876748 ] } },
{ "type": "Feature", "properties": { "fid": 160.0, "id": 4440.0, "left": 1124706.0262688524, "top": 1925777.9448048582, "right": 1127754.4356901736, "bottom": 1923137.9448048582, "nearest_bus_station_name": "Harlem & Grace", "nearest_bus_station_distance": 0.21686998249064601 }, "geometry": { "type": "Point", "coordinates": [ -87.811408005352064, 41.949056499451046 ] } },
{ "type": "Feature", "properties": { "fid": 161.0, "id": 4441.0, "left": 1124706.0262688524, "top": 1923137.9448048582, "right": 1127754.4356901736, "bottom": 1920497.9448048582, "nearest_bus_station_name": "Addison & Oketo", "nearest_bus_station_distance": 0.228662567531911 }, "geometry": { "type": "Point", "coordinates": [ -87.811467050084389, 41.941812027504326 ] } },
{ "type": "Feature", "properties": { "fid": 162.0, "id": 4444.0, "left": 1124706.0262688524, "top": 1915217.9448048582, "right": 1127754.4356901736, "bottom": 1912577.9448048582, "nearest_bus_station_name": "Harlem & Palmer", "nearest_bus_station_distance": 0.27136381266188198 }, "geometry": { "type": "Point", "coordinates": [ -87.811644054210944, 41.920078556196458 ] } },
{ "type": "Feature", "properties": { "fid": 163.0, "id": 2481.0, "left": 1088125.1132129976, "top": 1944257.9448048582, "right": 1091173.5226343188, "bottom": 1941617.9448048582, "nearest_bus_station_name": "East River Rd & Evelyn Lane", "nearest_bus_station_distance": 5.3499344009333454 }, "geometry": { "type": "Point", "coordinates": [ -87.945571044106046, 42.000300890046098 ] } },
{ "type": "Feature", "properties": { "fid": 164.0, "id": 6530.0, "left": 1163573.246390698, "top": 1882217.9448048582, "right": 1166621.6558120192, "bottom": 1879577.9448048582, "nearest_bus_station_name": "35th Street & Wood", "nearest_bus_station_distance": 0.117480069034391 }, "geometry": { "type": "Point", "coordinates": [ -87.669775249792494, 41.828786387566005 ] } },
{ "type": "Feature", "properties": { "fid": 165.0, "id": 6531.0, "left": 1163573.246390698, "top": 1879577.9448048582, "right": 1166621.6558120192, "bottom": 1876937.9448048582, "nearest_bus_station_name": "Pershing & Wood", "nearest_bus_station_distance": 0.110063456551057 }, "geometry": { "type": "Point", "coordinates": [ -87.669850004750344, 41.821541946281329 ] } },
{ "type": "Feature", "properties": { "fid": 166.0, "id": 8618.0, "left": 1202440.4665125436, "top": 1846577.9448048582, "right": 1205488.8759338649, "bottom": 1843937.9448048582, "nearest_bus_station_name": "Ewing & 94th Street", "nearest_bus_station_distance": 0.61287542113452598 }, "geometry": { "type": "Point", "coordinates": [ -87.528399919723284, 41.73007623817994 ] } },
{ "type": "Feature", "properties": { "fid": 167.0, "id": 6528.0, "left": 1163573.246390698, "top": 1887497.9448048582, "right": 1166621.6558120192, "bottom": 1884857.9448048582, "nearest_bus_station_name": "2700 S Ashland", "nearest_bus_station_distance": 0.18669540455126901 }, "geometry": { "type": "Point", "coordinates": [ -87.669625657581733, 41.843275242327074 ] } },
{ "type": "Feature", "properties": { "fid": 168.0, "id": 8619.0, "left": 1202440.4665125436, "top": 1843937.9448048582, "right": 1205488.8759338649, "bottom": 1841297.9448048582, "nearest_bus_station_name": "Ewing & 96th Street", "nearest_bus_station_distance": 0.36260438992653998 }, "geometry": { "type": "Point", "coordinates": [ -87.528490251673347, 41.722831833162012 ] } },
{ "type": "Feature", "properties": { "fid": 169.0, "id": 6529.0, "left": 1163573.246390698, "top": 1884857.9448048582, "right": 1166621.6558120192, "bottom": 1882217.9448048582, "nearest_bus_station_name": "Archer & Paulina", "nearest_bus_station_distance": 0.077250411697104004 }, "geometry": { "type": "Point", "coordinates": [ -87.669700467406855, 41.836030819581339 ] } },
{ "type": "Feature", "properties": { "fid": 170.0, "id": 8616.0, "left": 1202440.4665125436, "top": 1851857.9448048582, "right": 1205488.8759338649, "bottom": 1849217.9448048582, "nearest_bus_station_name": "87th Street & Buffalo", "nearest_bus_station_distance": 0.98149646062090501 }, "geometry": { "type": "Point", "coordinates": [ -87.528219156605388, 41.744565020379305 ] } },
{ "type": "Feature", "properties": { "fid": 171.0, "id": 6534.0, "left": 1163573.246390698, "top": 1871657.9448048582, "right": 1166621.6558120192, "bottom": 1869017.9448048582, "nearest_bus_station_name": "51st Street & Wood", "nearest_bus_station_distance": 0.098249995088277003 }, "geometry": { "type": "Point", "coordinates": [ -87.670074105173256, 41.799808566814285 ] } },
{ "type": "Feature", "properties": { "fid": 172.0, "id": 8617.0, "left": 1202440.4665125436, "top": 1849217.9448048582, "right": 1205488.8759338649, "bottom": 1846577.9448048582, "nearest_bus_station_name": "Buffalo & 88th Street", "nearest_bus_station_distance": 0.84182453211700103 }, "geometry": { "type": "Point", "coordinates": [ -87.528309554705288, 41.73732063391914 ] } },
{ "type": "Feature", "properties": { "fid": 173.0, "id": 6535.0, "left": 1163573.246390698, "top": 1869017.9448048582, "right": 1166621.6558120192, "bottom": 1866377.9448048582, "nearest_bus_station_name": "Garfield & Wood", "nearest_bus_station_distance": 0.083678167441079004 }, "geometry": { "type": "Point", "coordinates": [ -87.670148750536086, 41.792564088455222 ] } },
{ "type": "Feature", "properties": { "fid": 174.0, "id": 8622.0, "left": 1202440.4665125436, "top": 1836017.9448048582, "right": 1205488.8759338649, "bottom": 1833377.9448048582, "nearest_bus_station_name": "Avenue C & 107th Street", "nearest_bus_station_distance": 0.090306020032348 }, "geometry": { "type": "Point", "coordinates": [ -87.528761049255834, 41.701098562438858 ] } },
{ "type": "Feature", "properties": { "fid": 175.0, "id": 6532.0, "left": 1163573.246390698, "top": 1876937.9448048582, "right": 1166621.6558120192, "bottom": 1874297.9448048582, "nearest_bus_station_name": "Ashland & 43rd Street", "nearest_bus_station_distance": 0.266914040008361 }, "geometry": { "type": "Point", "coordinates": [ -87.669924732292003, 41.814297495727622 ] } },
{ "type": "Feature", "properties": { "fid": 176.0, "id": 8623.0, "left": 1202440.4665125436, "top": 1833377.9448048582, "right": 1205488.8759338649, "bottom": 1830737.9448048582, "nearest_bus_station_name": "Avenue C & 111th Street", "nearest_bus_station_distance": 0.091589525295986005 }, "geometry": { "type": "Point", "coordinates": [ -87.528851249073981, 41.693854120309027 ] } },
{ "type": "Feature", "properties": { "fid": 177.0, "id": 6533.0, "left": 1163573.246390698, "top": 1874297.9448048582, "right": 1166621.6558120192, "bottom": 1871657.9448048582, "nearest_bus_station_name": "47th Street & Wood", "nearest_bus_station_distance": 0.10327095594904601 }, "geometry": { "type": "Point", "coordinates": [ -87.669999432429094, 41.807053035905192 ] } },
{ "type": "Feature", "properties": { "fid": 178.0, "id": 8620.0, "left": 1202440.4665125436, "top": 1841297.9448048582, "right": 1205488.8759338649, "bottom": 1838657.9448048582, "nearest_bus_station_name": "Ewing & 99th Street", "nearest_bus_station_distance": 0.33888494849356299 }, "geometry": { "type": "Point", "coordinates": [ -87.528580550569487, 41.715587418865645 ] } },
{ "type": "Feature", "properties": { "fid": 179.0, "id": 6538.0, "left": 1163573.246390698, "top": 1861097.9448048582, "right": 1166621.6558120192, "bottom": 1858457.9448048582, "nearest_bus_station_name": "69th Street & Wolcott", "nearest_bus_station_distance": 0.16307618923040201 }, "geometry": { "type": "Point", "coordinates": [ -87.670372522452752, 41.770830597772019 ] } },
{ "type": "Feature", "properties": { "fid": 180.0, "id": 8621.0, "left": 1202440.4665125436, "top": 1838657.9448048582, "right": 1205488.8759338649, "bottom": 1836017.9448048582, "nearest_bus_station_name": "Ewing & 103rd Street", "nearest_bus_station_distance": 0.33688600147276798 }, "geometry": { "type": "Point", "coordinates": [ -87.528670816425659, 41.708342995291169 ] } },
{ "type": "Feature", "properties": { "fid": 181.0, "id": 6539.0, "left": 1163573.246390698, "top": 1858457.9448048582, "right": 1166621.6558120192, "bottom": 1855817.9448048582, "nearest_bus_station_name": "Damen & 72nd Street", "nearest_bus_station_distance": 0.15958680800015199 }, "geometry": { "type": "Point", "coordinates": [ -87.670447058406339, 41.763586082343245 ] } },
{ "type": "Feature", "properties": { "fid": 182.0, "id": 8626.0, "left": 1202440.4665125436, "top": 1825457.9448048582, "right": 1205488.8759338649, "bottom": 1822817.9448048582, "nearest_bus_station_name": "12243 S Avenue O", "nearest_bus_station_distance": 0.55567498076181299 }, "geometry": { "type": "Point", "coordinates": [ -87.529121650595641, 41.672120738257455 ] } },
{ "type": "Feature", "properties": { "fid": 183.0, "id": 6536.0, "left": 1163573.246390698, "top": 1866377.9448048582, "right": 1166621.6558120192, "bottom": 1863737.9448048582, "nearest_bus_station_name": "59th Street & Wood", "nearest_bus_station_distance": 0.101099925538003 }, "geometry": { "type": "Point", "coordinates": [ -87.670223368529221, 41.785319600828309 ] } },
{ "type": "Feature", "properties": { "fid": 184.0, "id": 8627.0, "left": 1202440.4665125436, "top": 1822817.9448048582, "right": 1205488.8759338649, "bottom": 1820177.9448048582, "nearest_bus_station_name": "Avenue O & 126th Street", "nearest_bus_station_distance": 0.51962140446754801 }, "geometry": { "type": "Point", "coordinates": [ -87.529211718505053, 41.664876259020566 ] } },
{ "type": "Feature", "properties": { "fid": 185.0, "id": 6537.0, "left": 1163573.246390698, "top": 1863737.9448048582, "right": 1166621.6558120192, "bottom": 1861097.9448048582, "nearest_bus_station_name": "63rd Street & Wolcott", "nearest_bus_station_distance": 0.105767829401973 }, "geometry": { "type": "Point", "coordinates": [ -87.670297959164245, 41.778075103933787 ] } },
{ "type": "Feature", "properties": { "fid": 186.0, "id": 8624.0, "left": 1202440.4665125436, "top": 1830737.9448048582, "right": 1205488.8759338649, "bottom": 1828097.9448048582, "nearest_bus_station_name": "Avenue C & 112th Street", "nearest_bus_station_distance": 0.37830992954712001 }, "geometry": { "type": "Point", "coordinates": [ -87.528941415894039, 41.686609668901966 ] } },
{ "type": "Feature", "properties": { "fid": 187.0, "id": 8625.0, "left": 1202440.4665125436, "top": 1828097.9448048582, "right": 1205488.8759338649, "bottom": 1825457.9448048582, "nearest_bus_station_name": "118th Street & Lake Point Plaza (3600 E)", "nearest_bus_station_distance": 0.46778438495351199 }, "geometry": { "type": "Point", "coordinates": [ -87.52903154972995, 41.679365208218023 ] } },
{ "type": "Feature", "properties": { "fid": 188.0, "id": 6542.0, "left": 1163573.246390698, "top": 1850537.9448048582, "right": 1166621.6558120192, "bottom": 1847897.9448048582, "nearest_bus_station_name": "Damen & 84th Street", "nearest_bus_station_distance": 0.123941101003345 }, "geometry": { "type": "Point", "coordinates": [ -87.670670517370155, 41.74185244462744 ] } },
{ "type": "Feature", "properties": { "fid": 189.0, "id": 8630.0, "left": 1202440.4665125436, "top": 1814897.9448048582, "right": 1205488.8759338649, "bottom": 1812257.9448048582, "nearest_bus_station_name": "Avenue O & Brainard (13800 S)", "nearest_bus_station_distance": 0.53689821177089403 }, "geometry": { "type": "Point", "coordinates": [ -87.52948172463465, 41.64314276565517 ] } },
{ "type": "Feature", "properties": { "fid": 190.0, "id": 6543.0, "left": 1163573.246390698, "top": 1847897.9448048582, "right": 1166621.6558120192, "bottom": 1845257.9448048582, "nearest_bus_station_name": "87th Street & Wolcott", "nearest_bus_station_distance": 0.069981904025513006 }, "geometry": { "type": "Point", "coordinates": [ -87.670744957486008, 41.734607860310987 ] } },
{ "type": "Feature", "properties": { "fid": 191.0, "id": 6540.0, "left": 1163573.246390698, "top": 1855817.9448048582, "right": 1166621.6558120192, "bottom": 1853177.9448048582, "nearest_bus_station_name": "Damen & 76th Street", "nearest_bus_station_distance": 0.148572290641178 }, "geometry": { "type": "Point", "coordinates": [ -87.670521567036559, 41.756341557647772 ] } },
{ "type": "Feature", "properties": { "fid": 192.0, "id": 8628.0, "left": 1202440.4665125436, "top": 1820177.9448048582, "right": 1205488.8759338649, "bottom": 1817537.9448048582, "nearest_bus_station_name": "Avenue O & 131st Street", "nearest_bus_station_distance": 0.54505343947493301 }, "geometry": { "type": "Point", "coordinates": [ -87.529301753472083, 41.657631770507692 ] } },
{ "type": "Feature", "properties": { "fid": 193.0, "id": 6541.0, "left": 1163573.246390698, "top": 1853177.9448048582, "right": 1166621.6558120192, "bottom": 1850537.9448048582, "nearest_bus_station_name": "79th Street & Wolcott", "nearest_bus_station_distance": 0.077974724866153006 }, "geometry": { "type": "Point", "coordinates": [ -87.670596050016186, 41.749097019707619 ] } },
{ "type": "Feature", "properties": { "fid": 194.0, "id": 8629.0, "left": 1202440.4665125436, "top": 1817537.9448048582, "right": 1205488.8759338649, "bottom": 1814897.9448048582, "nearest_bus_station_name": "Avenue O & 135th Street", "nearest_bus_station_distance": 0.53814866166827102 }, "geometry": { "type": "Point", "coordinates": [ -87.529391755510659, 41.650387272719115 ] } },
{ "type": "Feature", "properties": { "fid": 195.0, "id": 6546.0, "left": 1163573.246390698, "top": 1839977.9448048582, "right": 1166621.6558120192, "bottom": 1837337.9448048582, "nearest_bus_station_name": "103rd Street & Longwood", "nearest_bus_station_distance": 0.43223588974155602 }, "geometry": { "type": "Point", "coordinates": [ -87.670968114520093, 41.712874051946805 ] } },
{ "type": "Feature", "properties": { "fid": 196.0, "id": 6547.0, "left": 1163573.246390698, "top": 1837337.9448048582, "right": 1166621.6558120192, "bottom": 1834697.9448048582, "nearest_bus_station_name": "103rd Street & Longwood", "nearest_bus_station_distance": 0.061909384501261003 }, "geometry": { "type": "Point", "coordinates": [ -87.671042445798676, 41.705629430688077 ] } },
{ "type": "Feature", "properties": { "fid": 197.0, "id": 6544.0, "left": 1163573.246390698, "top": 1845257.9448048582, "right": 1166621.6558120192, "bottom": 1842617.9448048582, "nearest_bus_station_name": "Ashland & 91st Street", "nearest_bus_station_distance": 0.41353335841566302 }, "geometry": { "type": "Point", "coordinates": [ -87.67081937037527, 41.727363266758559 ] } },
{ "type": "Feature", "properties": { "fid": 198.0, "id": 6545.0, "left": 1163573.246390698, "top": 1842617.9448048582, "right": 1166621.6558120192, "bottom": 1839977.9448048582, "nearest_bus_station_name": "95th Street & Damen", "nearest_bus_station_distance": 0.081756782827574995 }, "geometry": { "type": "Point", "coordinates": [ -87.670893756049466, 41.720118663970382 ] } },
{ "type": "Feature", "properties": { "fid": 199.0, "id": 6550.0, "left": 1163573.246390698, "top": 1829417.9448048582, "right": 1166621.6558120192, "bottom": 1826777.9448048582, "nearest_bus_station_name": "115th Street & Vincennes", "nearest_bus_station_distance": 0.209128967325653 }, "geometry": { "type": "Point", "coordinates": [ -87.671265276596912, 41.683895511503849 ] } },
{ "type": "Feature", "properties": { "fid": 200.0, "id": 6551.0, "left": 1163573.246390698, "top": 1826777.9448048582, "right": 1166621.6558120192, "bottom": 1824137.9448048582, "nearest_bus_station_name": "119th Street & Vincennes", "nearest_bus_station_distance": 0.054041786163541002 }, "geometry": { "type": "Point", "coordinates": [ -87.671339499222114, 41.676650853307358 ] } },
{ "type": "Feature", "properties": { "fid": 201.0, "id": 6548.0, "left": 1163573.246390698, "top": 1834697.9448048582, "right": 1166621.6558120192, "bottom": 1832057.9448048582, "nearest_bus_station_name": "111th Street & Longwood", "nearest_bus_station_distance": 0.44177526039763398 }, "geometry": { "type": "Point", "coordinates": [ -87.671116749896669, 41.698384800194489 ] } },
{ "type": "Feature", "properties": { "fid": 202.0, "id": 6549.0, "left": 1163573.246390698, "top": 1832057.9448048582, "right": 1166621.6558120192, "bottom": 1829417.9448048582, "nearest_bus_station_name": "111th Street & Hale", "nearest_bus_station_distance": 0.053334713364643002 }, "geometry": { "type": "Point", "coordinates": [ -87.671191026825596, 41.691140160466318 ] } },
{ "type": "Feature", "properties": { "fid": 203.0, "id": 4582.0, "left": 1126992.3333348432, "top": 1871657.9448048582, "right": 1130040.7427561644, "bottom": 1869017.9448048582, "nearest_bus_station_name": "Archer & Neva Terminal", "nearest_bus_station_distance": 0.60554519863159195 }, "geometry": { "type": "Point", "coordinates": [ -87.804229265087955, 41.80050467949394 ] } },
{ "type": "Feature", "properties": { "fid": 204.0, "id": 4583.0, "left": 1126992.3333348432, "top": 1869017.9448048582, "right": 1130040.7427561644, "bottom": 1866377.9448048582, "nearest_bus_station_name": "Harlem & Archer", "nearest_bus_station_distance": 0.17794512053667999 }, "geometry": { "type": "Point", "coordinates": [ -87.804288811193913, 41.793260028039064 ] } },
{ "type": "Feature", "properties": { "fid": 205.0, "id": 6626.0, "left": 1165859.5534566888, "top": 1952177.9448048582, "right": 1168907.96287801, "bottom": 1949537.9448048582, "nearest_bus_station_name": "Howard & Sheridan", "nearest_bus_station_distance": 0.365582862301503 }, "geometry": { "type": "Point", "coordinates": [ -87.659370779961279, 42.020711576557794 ] } },
{ "type": "Feature", "properties": { "fid": 206.0, "id": 6627.0, "left": 1165859.5534566888, "top": 1949537.9448048582, "right": 1168907.96287801, "bottom": 1946897.9448048582, "nearest_bus_station_name": "Sheridan & Touhy", "nearest_bus_station_distance": 0.204669189275024 }, "geometry": { "type": "Point", "coordinates": [ -87.659447201999697, 42.013467410841393 ] } },
{ "type": "Feature", "properties": { "fid": 207.0, "id": 4586.0, "left": 1126992.3333348432, "top": 1861097.9448048582, "right": 1130040.7427561644, "bottom": 1858457.9448048582, "nearest_bus_station_name": "65th Street & Harlem", "nearest_bus_station_distance": 0.25223408008110798 }, "geometry": { "type": "Point", "coordinates": [ -87.804467318493323, 41.771526018227092 ] } },
{ "type": "Feature", "properties": { "fid": 208.0, "id": 6630.0, "left": 1165859.5534566888, "top": 1941617.9448048582, "right": 1168907.96287801, "bottom": 1938977.9448048582, "nearest_bus_station_name": "Broadway & Elmdale", "nearest_bus_station_distance": 0.054033345341535997 }, "geometry": { "type": "Point", "coordinates": [ -87.659676319912691, 41.991734837494413 ] } },
{ "type": "Feature", "properties": { "fid": 209.0, "id": 4584.0, "left": 1126992.3333348432, "top": 1866377.9448048582, "right": 1130040.7427561644, "bottom": 1863737.9448048582, "nearest_bus_station_name": "Harlem & 58th Street", "nearest_bus_station_distance": 0.15253938658219299 }, "geometry": { "type": "Point", "coordinates": [ -87.804348335457291, 41.78601536734277 ] } },
{ "type": "Feature", "properties": { "fid": 210.0, "id": 6631.0, "left": 1165859.5534566888, "top": 1938977.9448048582, "right": 1168907.96287801, "bottom": 1936337.9448048582, "nearest_bus_station_name": "Broadway & Bryn Mawr\/Ridge", "nearest_bus_station_distance": 0.046564464226863 }, "geometry": { "type": "Point", "coordinates": [ -87.659752647454013, 41.984490616723491 ] } },
{ "type": "Feature", "properties": { "fid": 211.0, "id": 4585.0, "left": 1126992.3333348432, "top": 1863737.9448048582, "right": 1130040.7427561644, "bottom": 1861097.9448048582, "nearest_bus_station_name": "63rd Street & 73rd Avenue", "nearest_bus_station_distance": 0.115665723296676 }, "geometry": { "type": "Point", "coordinates": [ -87.804407837887339, 41.778770697405349 ] } },
{ "type": "Feature", "properties": { "fid": 212.0, "id": 6628.0, "left": 1165859.5534566888, "top": 1946897.9448048582, "right": 1168907.96287801, "bottom": 1944257.9448048582, "nearest_bus_station_name": "Sheridan & Pratt", "nearest_bus_station_distance": 0.076512992671422003 }, "geometry": { "type": "Point", "coordinates": [ -87.659523595949508, 42.006223235825878 ] } },
{ "type": "Feature", "properties": { "fid": 213.0, "id": 6629.0, "left": 1165859.5534566888, "top": 1944257.9448048582, "right": 1168907.96287801, "bottom": 1941617.9448048582, "nearest_bus_station_name": "Sheridan & Broadway\/Devon", "nearest_bus_station_distance": 0.066836387824456001 }, "geometry": { "type": "Point", "coordinates": [ -87.659599964329914, 41.998979048986961 ] } },
{ "type": "Feature", "properties": { "fid": 214.0, "id": 6634.0, "left": 1165859.5534566888, "top": 1931057.9448048582, "right": 1168907.96287801, "bottom": 1928417.9448048582, "nearest_bus_station_name": "Wilson & Magnolia", "nearest_bus_station_distance": 0.180228763535664 }, "geometry": { "type": "Point", "coordinates": [ -87.659981461948618, 41.962757898743384 ] } },
{ "type": "Feature", "properties": { "fid": 215.0, "id": 6635.0, "left": 1165859.5534566888, "top": 1928417.9448048582, "right": 1168907.96287801, "bottom": 1925777.9448048582, "nearest_bus_station_name": "Irving Park & Clark", "nearest_bus_station_distance": 0.127028224959573 }, "geometry": { "type": "Point", "coordinates": [ -87.660057677443461, 41.955513640861838 ] } },
{ "type": "Feature", "properties": { "fid": 216.0, "id": 6632.0, "left": 1165859.5534566888, "top": 1936337.9448048582, "right": 1168907.96287801, "bottom": 1933697.9448048582, "nearest_bus_station_name": "Broadway & Foster", "nearest_bus_station_distance": 0.027186969047334 }, "geometry": { "type": "Point", "coordinates": [ -87.659828946965803, 41.977246386674501 ] } },
{ "type": "Feature", "properties": { "fid": 217.0, "id": 6633.0, "left": 1165859.5534566888, "top": 1933697.9448048582, "right": 1168907.96287801, "bottom": 1931057.9448048582, "nearest_bus_station_name": "Lawrence & Broadway", "nearest_bus_station_distance": 0.062702086839469998 }, "geometry": { "type": "Point", "coordinates": [ -87.65990521846004, 41.970002147347699 ] } },
{ "type": "Feature", "properties": { "fid": 218.0, "id": 6638.0, "left": 1165859.5534566888, "top": 1920497.9448048582, "right": 1168907.96287801, "bottom": 1917857.9448048582, "nearest_bus_station_name": "Diversey & Lakewood", "nearest_bus_station_distance": 0.088704633500206007 }, "geometry": { "type": "Point", "coordinates": [ -87.660286156084879, 41.933780811556502 ] } },
{ "type": "Feature", "properties": { "fid": 219.0, "id": 6639.0, "left": 1165859.5534566888, "top": 1917857.9448048582, "right": 1168907.96287801, "bottom": 1915217.9448048582, "nearest_bus_station_name": "Fullerton & Surrey Court", "nearest_bus_station_distance": 0.083675470323696002 }, "geometry": { "type": "Point", "coordinates": [ -87.660362259723982, 41.926536516568781 ] } },
{ "type": "Feature", "properties": { "fid": 220.0, "id": 6636.0, "left": 1165859.5534566888, "top": 1925777.9448048582, "right": 1168907.96287801, "bottom": 1923137.9448048582, "nearest_bus_station_name": "Addison & Racine", "nearest_bus_station_distance": 0.092372714865069996 }, "geometry": { "type": "Point", "coordinates": [ -87.660133864956535, 41.948269373703319 ] } },
{ "type": "Feature", "properties": { "fid": 221.0, "id": 6637.0, "left": 1165859.5534566888, "top": 1923137.9448048582, "right": 1168907.96287801, "bottom": 1920497.9448048582, "nearest_bus_station_name": "Belmont & Racine", "nearest_bus_station_distance": 0.092738568961659995 }, "geometry": { "type": "Point", "coordinates": [ -87.660210024499705, 41.941025097268096 ] } },
{ "type": "Feature", "properties": { "fid": 222.0, "id": 6642.0, "left": 1165859.5534566888, "top": 1909937.9448048582, "right": 1168907.96287801, "bottom": 1907297.9448048582, "nearest_bus_station_name": "Division & Elston", "nearest_bus_station_distance": 0.120128660102555 }, "geometry": { "type": "Point", "coordinates": [ -87.660590403083575, 41.904803575951767 ] } },
{ "type": "Feature", "properties": { "fid": 223.0, "id": 6643.0, "left": 1165859.5534566888, "top": 1907297.9448048582, "right": 1168907.96287801, "bottom": 1904657.9448048582, "nearest_bus_station_name": "Chicago & Elizabeth", "nearest_bus_station_distance": 0.092561021700565002 }, "geometry": { "type": "Point", "coordinates": [ -87.660666395057106, 41.897559243862418 ] } },
{ "type": "Feature", "properties": { "fid": 224.0, "id": 6640.0, "left": 1165859.5534566888, "top": 1915217.9448048582, "right": 1168907.96287801, "bottom": 1912577.9448048582, "nearest_bus_station_name": "Cortland & Kingsbury", "nearest_bus_station_distance": 0.15218739520576399 }, "geometry": { "type": "Point", "coordinates": [ -87.660438335428879, 41.919292212305237 ] } },
{ "type": "Feature", "properties": { "fid": 225.0, "id": 6641.0, "left": 1165859.5534566888, "top": 1912577.9448048582, "right": 1168907.96287801, "bottom": 1909937.9448048582, "nearest_bus_station_name": "North Ave & Throop", "nearest_bus_station_distance": 0.086473956636559005 }, "geometry": { "type": "Point", "coordinates": [ -87.660514383211449, 41.912047898766119 ] } },
{ "type": "Feature", "properties": { "fid": 226.0, "id": 6646.0, "left": 1165859.5534566888, "top": 1899377.9448048582, "right": 1168907.96287801, "bottom": 1896737.9448048582, "nearest_bus_station_name": "Van Buren & Throop", "nearest_bus_station_distance": 0.078412073552847003 }, "geometry": { "type": "Point", "coordinates": [ -87.660894203704828, 41.875826191947333 ] } },
{ "type": "Feature", "properties": { "fid": 227.0, "id": 6647.0, "left": 1165859.5534566888, "top": 1896737.9448048582, "right": 1168907.96287801, "bottom": 1894097.9448048582, "nearest_bus_station_name": "Taylor & Loomis", "nearest_bus_station_distance": 0.062389412031668 }, "geometry": { "type": "Point", "coordinates": [ -87.66097008420256, 41.868581822760909 ] } },
{ "type": "Feature", "properties": { "fid": 228.0, "id": 6644.0, "left": 1165859.5534566888, "top": 1904657.9448048582, "right": 1168907.96287801, "bottom": 1902017.9448048582, "nearest_bus_station_name": "Grand & Noble", "nearest_bus_station_distance": 0.087736498404413998 }, "geometry": { "type": "Point", "coordinates": [ -87.660742359143939, 41.890314902498361 ] } },
{ "type": "Feature", "properties": { "fid": 229.0, "id": 6645.0, "left": 1165859.5534566888, "top": 1902017.9448048582, "right": 1168907.96287801, "bottom": 1899377.9448048582, "nearest_bus_station_name": "Madison & Throop", "nearest_bus_station_distance": 0.11970484345561 }, "geometry": { "type": "Point", "coordinates": [ -87.660818295355881, 41.883070551859902 ] } },
{ "type": "Feature", "properties": { "fid": 230.0, "id": 6650.0, "left": 1165859.5534566888, "top": 1888817.9448048582, "right": 1168907.96287801, "bottom": 1886177.9448048582, "nearest_bus_station_name": "2451 S Ashland", "nearest_bus_station_distance": 0.246755999525579 }, "geometry": { "type": "Point", "coordinates": [ -87.661197558706903, 41.846848659561502 ] } },
{ "type": "Feature", "properties": { "fid": 231.0, "id": 6651.0, "left": 1165859.5534566888, "top": 1886177.9448048582, "right": 1168907.96287801, "bottom": 1883537.9448048582, "nearest_bus_station_name": "Archer & Lock", "nearest_bus_station_distance": 0.024435550839554 }, "geometry": { "type": "Point", "coordinates": [ -87.661273327918124, 41.839604253282602 ] } },
{ "type": "Feature", "properties": { "fid": 232.0, "id": 6648.0, "left": 1165859.5534566888, "top": 1894097.9448048582, "right": 1168907.96287801, "bottom": 1891457.9448048582, "nearest_bus_station_name": "Blue Island & 16th Street", "nearest_bus_station_distance": 0.13888162375479901 }, "geometry": { "type": "Point", "coordinates": [ -87.661045936860944, 41.861337444300936 ] } },
{ "type": "Feature", "properties": { "fid": 233.0, "id": 6649.0, "left": 1165859.5534566888, "top": 1891457.9448048582, "right": 1168907.96287801, "bottom": 1888817.9448048582, "nearest_bus_station_name": "Loomis & Cullerton", "nearest_bus_station_distance": 0.067239550166930007 }, "geometry": { "type": "Point", "coordinates": [ -87.661121761691788, 41.854093056567706 ] } },
{ "type": "Feature", "properties": { "fid": 234.0, "id": 6654.0, "left": 1165859.5534566888, "top": 1878257.9448048582, "right": 1168907.96287801, "bottom": 1875617.9448048582, "nearest_bus_station_name": "Ashland & 42nd Street", "nearest_bus_station_distance": 0.180268401942456 }, "geometry": { "type": "Point", "coordinates": [ -87.661500468846285, 41.817870978812699 ] } },
{ "type": "Feature", "properties": { "fid": 235.0, "id": 6655.0, "left": 1165859.5534566888, "top": 1875617.9448048582, "right": 1168907.96287801, "bottom": 1872977.9448048582, "nearest_bus_station_name": "47th Street & Laflin", "nearest_bus_station_distance": 0.13960767313889699 }, "geometry": { "type": "Point", "coordinates": [ -87.661576126959801, 41.810626535445991 ] } },
{ "type": "Feature", "properties": { "fid": 236.0, "id": 6652.0, "left": 1165859.5534566888, "top": 1883537.9448048582, "right": 1168907.96287801, "bottom": 1880897.9448048582, "nearest_bus_station_name": "1349 W 35th Street", "nearest_bus_station_distance": 0.124952525804558 }, "geometry": { "type": "Point", "coordinates": [ -87.661349069337234, 41.83235983773131 ] } },
{ "type": "Feature", "properties": { "fid": 237.0, "id": 6653.0, "left": 1165859.5534566888, "top": 1880897.9448048582, "right": 1168907.96287801, "bottom": 1878257.9448048582, "nearest_bus_station_name": "Pershing & Loomis", "nearest_bus_station_distance": 0.13865879665827199 }, "geometry": { "type": "Point", "coordinates": [ -87.661424782976042, 41.825115412907927 ] } },
{ "type": "Feature", "properties": { "fid": 238.0, "id": 4554.0, "left": 1126992.3333348432, "top": 1945577.9448048582, "right": 1130040.7427561644, "bottom": 1942937.9448048582, "nearest_bus_station_name": "Northwest Hwy & Devon", "nearest_bus_station_distance": 0.47816179984213603 }, "geometry": { "type": "Point", "coordinates": [ -87.802553074414732, 42.003351163518026 ] } },
{ "type": "Feature", "properties": { "fid": 239.0, "id": 4555.0, "left": 1126992.3333348432, "top": 1942937.9448048582, "right": 1130040.7427561644, "bottom": 1940297.9448048582, "nearest_bus_station_name": "Northwest Hwy & Neva", "nearest_bus_station_distance": 0.109502609929763 }, "geometry": { "type": "Point", "coordinates": [ -87.802613229742121, 41.996106774514267 ] } },
{ "type": "Feature", "properties": { "fid": 240.0, "id": 4552.0, "left": 1126992.3333348432, "top": 1950857.9448048582, "right": 1130040.7427561644, "bottom": 1948217.9448048582, "nearest_bus_station_name": "Caldwell & Touhy", "nearest_bus_station_distance": 0.83189972523432498 }, "geometry": { "type": "Point", "coordinates": [ -87.802432711777911, 42.017839905463283 ] } },
{ "type": "Feature", "properties": { "fid": 241.0, "id": 4553.0, "left": 1126992.3333348432, "top": 1948217.9448048582, "right": 1130040.7427561644, "bottom": 1945577.9448048582, "nearest_bus_station_name": "Caldwell & Touhy", "nearest_bus_station_distance": 0.72667974538394098 }, "geometry": { "type": "Point", "coordinates": [ -87.802492904145112, 42.010595539113574 ] } },
{ "type": "Feature", "properties": { "fid": 242.0, "id": 4558.0, "left": 1126992.3333348432, "top": 1935017.9448048582, "right": 1130040.7427561644, "bottom": 1932377.9448048582, "nearest_bus_station_name": "Harlem & Foster", "nearest_bus_station_distance": 0.21593764540353 }, "geometry": { "type": "Point", "coordinates": [ -87.802793581596717, 41.974373541269522 ] } },
{ "type": "Feature", "properties": { "fid": 243.0, "id": 4559.0, "left": 1126992.3333348432, "top": 1932377.9448048582, "right": 1130040.7427561644, "bottom": 1929737.9448048582, "nearest_bus_station_name": "Gunnison & Sayre\/Nordica", "nearest_bus_station_distance": 0.074546949852610997 }, "geometry": { "type": "Point", "coordinates": [ -87.802853654717211, 41.967129111691122 ] } },
{ "type": "Feature", "properties": { "fid": 244.0, "id": 4556.0, "left": 1126992.3333348432, "top": 1940297.9448048582, "right": 1130040.7427561644, "bottom": 1937657.9448048582, "nearest_bus_station_name": "Harlem & Thorndale", "nearest_bus_station_distance": 0.219734499193324 }, "geometry": { "type": "Point", "coordinates": [ -87.802673369118594, 41.988862372681375 ] } },
{ "type": "Feature", "properties": { "fid": 245.0, "id": 4557.0, "left": 1126992.3333348432, "top": 1937657.9448048582, "right": 1130040.7427561644, "bottom": 1935017.9448048582, "nearest_bus_station_name": "Higgins & Nordica", "nearest_bus_station_distance": 0.102734917283265 }, "geometry": { "type": "Point", "coordinates": [ -87.802733486400314, 41.981617961599696 ] } },
{ "type": "Feature", "properties": { "fid": 246.0, "id": 4562.0, "left": 1126992.3333348432, "top": 1924457.9448048582, "right": 1130040.7427561644, "bottom": 1921817.9448048582, "nearest_bus_station_name": "Addison & Nordica", "nearest_bus_station_distance": 0.010109808429552 }, "geometry": { "type": "Point", "coordinates": [ -87.803033741717158, 41.945395767469122 ] } },
{ "type": "Feature", "properties": { "fid": 247.0, "id": 4563.0, "left": 1126992.3333348432, "top": 1921817.9448048582, "right": 1130040.7427561644, "bottom": 1919177.9448048582, "nearest_bus_station_name": "Belmont & Nottingham", "nearest_bus_station_distance": 0.053876203197801002 }, "geometry": { "type": "Point", "coordinates": [ -87.803093726627949, 41.938151300900429 ] } },
{ "type": "Feature", "properties": { "fid": 248.0, "id": 4560.0, "left": 1126992.3333348432, "top": 1929737.9448048582, "right": 1130040.7427561644, "bottom": 1927097.9448048582, "nearest_bus_station_name": "Harlem & Pensacola", "nearest_bus_station_distance": 0.22248150733548699 }, "geometry": { "type": "Point", "coordinates": [ -87.802913705771189, 41.959884672864746 ] } },
{ "type": "Feature", "properties": { "fid": 249.0, "id": 4561.0, "left": 1126992.3333348432, "top": 1927097.9448048582, "right": 1130040.7427561644, "bottom": 1924457.9448048582, "nearest_bus_station_name": "Irving Park & Nordica", "nearest_bus_station_distance": 0.028104357935552 }, "geometry": { "type": "Point", "coordinates": [ -87.802973734768045, 41.952640224790642 ] } },
{ "type": "Feature", "properties": { "fid": 250.0, "id": 4566.0, "left": 1126992.3333348432, "top": 1913897.9448048582, "right": 1130040.7427561644, "bottom": 1911257.9448048582, "nearest_bus_station_name": "Harlem & Armitage", "nearest_bus_station_distance": 0.137927340167603 }, "geometry": { "type": "Point", "coordinates": [ -87.803273549224002, 41.91641784571403 ] } },
{ "type": "Feature", "properties": { "fid": 251.0, "id": 4567.0, "left": 1126992.3333348432, "top": 1911257.9448048582, "right": 1130040.7427561644, "bottom": 1908617.9448048582, "nearest_bus_station_name": "North Ave & Neva", "nearest_bus_station_distance": 0.023349164442895001 }, "geometry": { "type": "Point", "coordinates": [ -87.803333446075158, 41.909173342159356 ] } },
{ "type": "Feature", "properties": { "fid": 252.0, "id": 4564.0, "left": 1126992.3333348432, "top": 1919177.9448048582, "right": 1130040.7427561644, "bottom": 1916537.9448048582, "nearest_bus_station_name": "Diversey & Nordica", "nearest_bus_station_distance": 0.016403982600545 }, "geometry": { "type": "Point", "coordinates": [ -87.803153689509756, 41.93090682508484 ] } },
{ "type": "Feature", "properties": { "fid": 253.0, "id": 4565.0, "left": 1126992.3333348432, "top": 1916537.9448048582, "right": 1130040.7427561644, "bottom": 1913897.9448048582, "nearest_bus_station_name": "Grand & Nordica Terminal", "nearest_bus_station_distance": 0.064609138181512996 }, "geometry": { "type": "Point", "coordinates": [ -87.803213630371999, 41.923662340022609 ] } },
{ "type": "Feature", "properties": { "fid": 254.0, "id": 2602.0, "left": 1090411.4202789885, "top": 1945577.9448048582, "right": 1093459.8297003098, "bottom": 1942937.9448048582, "nearest_bus_station_name": "East River Rd & Evelyn Lane", "nearest_bus_station_distance": 5.0245760082569779 }, "geometry": { "type": "Point", "coordinates": [ -87.937137422768814, 42.003894437922568 ] } },
{ "type": "Feature", "properties": { "fid": 255.0, "id": 2603.0, "left": 1090411.4202789885, "top": 1942937.9448048582, "right": 1093459.8297003098, "bottom": 1940297.9448048582, "nearest_bus_station_name": "East River Rd & Evelyn Lane", "nearest_bus_station_distance": 4.8633191980998163 }, "geometry": { "type": "Point", "coordinates": [ -87.937182330504839, 41.996649910117775 ] } },
{ "type": "Feature", "properties": { "fid": 256.0, "id": 2601.0, "left": 1090411.4202789885, "top": 1948217.9448048582, "right": 1093459.8297003098, "bottom": 1945577.9448048582, "nearest_bus_station_name": "East River Rd & Evelyn Lane", "nearest_bus_station_distance": 5.2288492982146124 }, "geometry": { "type": "Point", "coordinates": [ -87.937092491535964, 42.011138951006686 ] } },
{ "type": "Feature", "properties": { "fid": 257.0, "id": 2606.0, "left": 1090411.4202789885, "top": 1935017.9448048582, "right": 1093459.8297003098, "bottom": 1932377.9448048582, "nearest_bus_station_name": "East River Rd & Berwyn", "nearest_bus_station_distance": 4.6744661270376744 }, "geometry": { "type": "Point", "coordinates": [ -87.937316930325224, 41.974916252210988 ] } },
{ "type": "Feature", "properties": { "fid": 258.0, "id": 2607.0, "left": 1090411.4202789885, "top": 1932377.9448048582, "right": 1093459.8297003098, "bottom": 1929737.9448048582, "nearest_bus_station_name": "East River Rd & Ainslie", "nearest_bus_station_distance": 4.6725767420862976 }, "geometry": { "type": "Point", "coordinates": [ -87.937361763964219, 41.967671681142043 ] } },
{ "type": "Feature", "properties": { "fid": 259.0, "id": 2604.0, "left": 1090411.4202789885, "top": 1940297.9448048582, "right": 1093459.8297003098, "bottom": 1937657.9448048582, "nearest_bus_station_name": "East River Rd & Evelyn Lane", "nearest_bus_station_distance": 4.7494624604240698 }, "geometry": { "type": "Point", "coordinates": [ -87.93722721360254, 41.989405366699117 ] } },
{ "type": "Feature", "properties": { "fid": 260.0, "id": 8738.0, "left": 1204726.7735785344, "top": 1850537.9448048582, "right": 1207775.1829998556, "bottom": 1847897.9448048582, "nearest_bus_station_name": "87th Street & Buffalo", "nearest_bus_station_distance": 1.3008670462391041 }, "geometry": { "type": "Point", "coordinates": [ -87.51988773789769, 41.740883825616983 ] } },
{ "type": "Feature", "properties": { "fid": 261.0, "id": 2605.0, "left": 1090411.4202789885, "top": 1937657.9448048582, "right": 1093459.8297003098, "bottom": 1935017.9448048582, "nearest_bus_station_name": "East River Rd & Evelyn Lane", "nearest_bus_station_distance": 4.6864617979666701 }, "geometry": { "type": "Point", "coordinates": [ -87.937272080206995, 41.982160814063434 ] } },
{ "type": "Feature", "properties": { "fid": 262.0, "id": 2608.0, "left": 1090411.4202789885, "top": 1929737.9448048582, "right": 1093459.8297003098, "bottom": 1927097.9448048582, "nearest_bus_station_name": "East River Rd & Ainslie", "nearest_bus_station_distance": 4.7059888544335937 }, "geometry": { "type": "Point", "coordinates": [ -87.937406581131043, 41.960427100856833 ] } },
{ "type": "Feature", "properties": { "fid": 263.0, "id": 8743.0, "left": 1204726.7735785344, "top": 1837337.9448048582, "right": 1207775.1829998556, "bottom": 1834697.9448048582, "nearest_bus_station_name": "106th Street & Avenue B", "nearest_bus_station_distance": 0.34900786475881401 }, "geometry": { "type": "Point", "coordinates": [ -87.520343999849402, 41.704661841079123 ] } },